index,datetime,timestamp,joint_angle_1,joint_angle_1_des,joint_angle_2,joint_angle_2_des,joint_angle_3,joint_angle_3_des,joint_angle_4,joint_angle_4_des,timestamp_desired,roll_desired,pitch_desired,yaw_desired
0,2023-11-28 17:29:15.571005,1701188955.571005,111.1538122553797,0.0,63.02535746439056,0.0,106.57014989433311,0.0,66.46310423517549,0.0,1701188959.971784,0.0,0.0,0.0
1,2023-11-28 17:29:15.592594,1701188955.592594,111.1538122553797,0.0,63.02535746439056,0.0,106.57014989433311,0.0,66.46310423517549,0.0,1701188959.971784,0.0,0.0,0.0
2,2023-11-28 17:29:15.622892,1701188955.622892,111.1538122553797,0.0,63.02535746439056,0.0,106.57014989433311,0.0,66.46310423517549,0.0,1701188959.971784,0.0,0.0,0.0
3,2023-11-28 17:29:15.644621,1701188955.644621,111.1538122553797,0.0,63.02535746439056,0.0,106.57014989433311,0.0,66.46310423517549,0.0,1701188959.971784,0.0,0.0,0.0
4,2023-11-28 17:29:15.674825,1701188955.674825,111.1538122553797,0.0,63.02535746439056,0.0,106.57014989433311,0.0,66.46310423517549,0.0,1701188959.971784,0.0,0.0,0.0
5,2023-11-28 17:29:15.696288,1701188955.696288,111.1538122553797,0.0,63.02535746439056,0.0,106.57014989433311,0.0,66.46310423517549,0.0,1701188959.971784,0.0,0.0,0.0
6,2023-11-28 17:29:15.726097,1701188955.726097,111.1538122553797,0.0,63.02535746439056,0.0,106.57014989433311,0.0,66.46310423517549,0.0,1701188959.971784,0.0,0.0,0.0
7,2023-11-28 17:29:15.746590,1701188955.74659,111.1538122553797,0.0,63.02535746439056,0.0,106.57014989433311,0.0,66.46310423517549,0.0,1701188959.971784,0.0,0.0,0.0
8,2023-11-28 17:29:15.777362,1701188955.777362,111.1538122553797,0.0,63.02535746439056,0.0,106.57014989433311,0.0,66.46310423517549,0.0,1701188959.971784,0.0,0.0,0.0
9,2023-11-28 17:29:15.798578,1701188955.798578,111.1538122553797,0.0,63.02535746439056,0.0,106.57014989433311,0.0,66.46310423517549,0.0,1701188959.971784,0.0,0.0,0.0
10,2023-11-28 17:29:15.828885,1701188955.828885,111.1538122553797,0.0,63.02535746439056,0.0,106.57014989433311,0.0,66.46310423517549,0.0,1701188959.971784,0.0,0.0,0.0
11,2023-11-28 17:29:15.850181,1701188955.850181,111.1538122553797,0.0,63.02535746439056,0.0,106.57014989433311,0.0,66.46310423517549,0.0,1701188959.971784,0.0,0.0,0.0
12,2023-11-28 17:29:15.880329,1701188955.880329,111.1538122553797,0.0,63.02535746439056,0.0,106.57014989433311,0.0,66.46310423517549,0.0,1701188959.971784,0.0,0.0,0.0
13,2023-11-28 17:29:15.901600,1701188955.9016,111.1538122553797,0.0,63.02535746439056,0.0,106.57014989433311,0.0,66.46310423517549,0.0,1701188959.971784,0.0,0.0,0.0
14,2023-11-28 17:29:15.931870,1701188955.93187,111.1538122553797,0.0,63.02535746439056,0.0,106.57014989433311,0.0,66.46310423517549,0.0,1701188959.971784,0.0,0.0,0.0
15,2023-11-28 17:29:15.953227,1701188955.953227,111.1538122553797,0.0,63.02535746439056,0.0,106.57014989433311,0.0,66.46310423517549,0.0,1701188959.971784,0.0,0.0,0.0
16,2023-11-28 17:29:15.982829,1701188955.982829,111.1538122553797,0.0,63.02535746439056,0.0,106.57014989433311,0.0,66.46310423517549,0.0,1701188959.971784,0.0,0.0,0.0
17,2023-11-28 17:29:16.004527,1701188956.004527,111.1538122553797,0.0,63.02535746439056,0.0,106.57014989433311,0.0,66.46310423517549,0.0,1701188959.971784,0.0,0.0,0.0
18,2023-11-28 17:29:16.034891,1701188956.034891,111.1538122553797,0.0,63.02535746439056,0.0,106.57014989433311,0.0,66.46310423517549,0.0,1701188959.971784,0.0,0.0,0.0
19,2023-11-28 17:29:16.056182,1701188956.056182,111.1538122553797,0.0,63.02535746439056,0.0,106.57014989433311,0.0,66.46310423517549,0.0,1701188959.971784,0.0,0.0,0.0
20,2023-11-28 17:29:16.086440,1701188956.08644,111.1538122553797,0.0,63.02535746439056,0.0,106.57014989433311,0.0,66.46310423517549,0.0,1701188959.971784,0.0,0.0,0.0
21,2023-11-28 17:29:16.108106,1701188956.108106,111.1538122553797,0.0,63.02535746439056,0.0,106.57014989433311,0.0,66.46310423517549,0.0,1701188959.971784,0.0,0.0,0.0
22,2023-11-28 17:29:16.138627,1701188956.138627,111.1538122553797,0.0,63.02535746439056,0.0,106.57014989433311,0.0,66.46310423517549,0.0,1701188959.971784,0.0,0.0,0.0
23,2023-11-28 17:29:16.160408,1701188956.160408,111.1538122553797,0.0,63.02535746439056,0.0,106.57014989433311,0.0,66.46310423517549,0.0,1701188959.971784,0.0,0.0,0.0
24,2023-11-28 17:29:16.190923,1701188956.190923,111.1538122553797,0.0,63.02535746439056,0.0,106.57014989433311,0.0,66.46310423517549,0.0,1701188959.971784,0.0,0.0,0.0
25,2023-11-28 17:29:16.212500,1701188956.2125,111.1538122553797,0.0,63.02535746439056,0.0,106.57014989433311,0.0,66.46310423517549,0.0,1701188959.971784,0.0,0.0,0.0
26,2023-11-28 17:29:16.243000,1701188956.243,111.1538122553797,0.0,63.02535746439056,0.0,106.57014989433311,0.0,66.46310423517549,0.0,1701188959.971784,0.0,0.0,0.0
27,2023-11-28 17:29:16.264389,1701188956.264389,111.1538122553797,0.0,63.02535746439056,0.0,106.57014989433311,0.0,66.46310423517549,0.0,1701188959.971784,0.0,0.0,0.0
28,2023-11-28 17:29:16.294855,1701188956.294855,111.1538122553797,0.0,63.02535746439056,0.0,106.57014989433311,0.0,66.46310423517549,0.0,1701188959.971784,0.0,0.0,0.0
29,2023-11-28 17:29:16.316690,1701188956.31669,111.1538122553797,0.0,63.02535746439056,0.0,106.57014989433311,0.0,66.46310423517549,0.0,1701188959.971784,0.0,0.0,0.0
30,2023-11-28 17:29:16.346919,1701188956.346919,111.1538122553797,0.0,63.02535746439056,0.0,106.57014989433311,0.0,66.46310423517549,0.0,1701188959.971784,0.0,0.0,0.0
31,2023-11-28 17:29:16.368504,1701188956.368504,111.1538122553797,0.0,63.02535746439056,0.0,106.57014989433311,0.0,66.46310423517549,0.0,1701188959.971784,0.0,0.0,0.0
32,2023-11-28 17:29:16.398800,1701188956.3988,111.1538122553797,0.0,63.02535746439056,0.0,106.57014989433311,0.0,66.46310423517549,0.0,1701188959.971784,0.0,0.0,0.0
33,2023-11-28 17:29:16.420459,1701188956.420459,111.1538122553797,0.0,63.02535746439056,0.0,106.57014989433311,0.0,66.46310423517549,0.0,1701188959.971784,0.0,0.0,0.0
34,2023-11-28 17:29:16.450784,1701188956.450784,111.1538122553797,0.0,63.02535746439056,0.0,106.57014989433311,0.0,66.46310423517549,0.0,1701188959.971784,0.0,0.0,0.0
35,2023-11-28 17:29:16.471893,1701188956.471893,111.1538122553797,0.0,63.02535746439056,0.0,106.57014989433311,0.0,66.46310423517549,0.0,1701188959.971784,0.0,0.0,0.0
36,2023-11-28 17:29:16.502069,1701188956.502069,111.1538122553797,0.0,63.02535746439056,0.0,106.57014989433311,0.0,66.46310423517549,0.0,1701188959.971784,0.0,0.0,0.0
37,2023-11-28 17:29:16.523523,1701188956.523523,111.1538122553797,0.0,63.02535746439056,0.0,106.57014989433311,0.0,66.46310423517549,0.0,1701188959.971784,0.0,0.0,0.0
38,2023-11-28 17:29:16.553832,1701188956.553832,111.1538122553797,0.0,63.02535746439056,0.0,106.57014989433311,0.0,66.46310423517549,0.0,1701188959.971784,0.0,0.0,0.0
39,2023-11-28 17:29:16.575596,1701188956.575596,111.1538122553797,0.0,63.02535746439056,0.0,106.57014989433311,0.0,66.46310423517549,0.0,1701188959.971784,0.0,0.0,0.0
40,2023-11-28 17:29:16.605954,1701188956.605954,111.1538122553797,0.0,63.02535746439056,0.0,106.57014989433311,0.0,66.46310423517549,0.0,1701188959.971784,0.0,0.0,0.0
41,2023-11-28 17:29:16.627970,1701188956.62797,111.1538122553797,0.0,63.02535746439056,0.0,106.57014989433311,0.0,66.46310423517549,0.0,1701188959.971784,0.0,0.0,0.0
42,2023-11-28 17:29:16.658337,1701188956.658337,111.1538122553797,0.0,63.02535746439056,0.0,106.57014989433311,0.0,66.46310423517549,0.0,1701188959.971784,0.0,0.0,0.0
43,2023-11-28 17:29:16.680061,1701188956.680061,111.1538122553797,0.0,63.02535746439056,0.0,106.57014989433311,0.0,66.46310423517549,0.0,1701188959.971784,0.0,0.0,0.0
44,2023-11-28 17:29:16.709775,1701188956.709775,111.1538122553797,0.0,63.02535746439056,0.0,106.57014989433311,0.0,66.46310423517549,0.0,1701188959.971784,0.0,0.0,0.0
45,2023-11-28 17:29:16.730741,1701188956.730741,111.1538122553797,0.0,63.02535746439056,0.0,106.57014989433311,0.0,66.46310423517549,0.0,1701188959.971784,0.0,0.0,0.0
46,2023-11-28 17:29:16.760918,1701188956.760918,111.1538122553797,0.0,63.02535746439056,0.0,106.57014989433311,0.0,66.46310423517549,0.0,1701188959.971784,0.0,0.0,0.0
47,2023-11-28 17:29:16.783181,1701188956.783181,111.1538122553797,0.0,63.02535746439056,0.0,106.57014989433311,0.0,66.46310423517549,0.0,1701188959.971784,0.0,0.0,0.0
48,2023-11-28 17:29:16.813115,1701188956.813115,111.1538122553797,0.0,63.02535746439056,0.0,106.57014989433311,0.0,66.46310423517549,0.0,1701188959.971784,0.0,0.0,0.0
49,2023-11-28 17:29:16.835338,1701188956.835338,111.1538122553797,0.0,63.02535746439056,0.0,106.57014989433311,0.0,66.46310423517549,0.0,1701188959.971784,0.0,0.0,0.0
50,2023-11-28 17:29:16.864855,1701188956.864855,111.1538122553797,0.0,63.02535746439056,0.0,106.57014989433311,0.0,66.46310423517549,0.0,1701188959.971784,0.0,0.0,0.0
51,2023-11-28 17:29:16.886182,1701188956.886182,111.1538122553797,0.0,63.02535746439056,0.0,106.57014989433311,0.0,66.46310423517549,0.0,1701188959.971784,0.0,0.0,0.0
52,2023-11-28 17:29:16.915965,1701188956.915965,111.1538122553797,0.0,63.02535746439056,0.0,106.57014989433311,0.0,66.46310423517549,0.0,1701188959.971784,0.0,0.0,0.0
53,2023-11-28 17:29:16.938346,1701188956.938346,111.1538122553797,0.0,63.02535746439056,0.0,106.57014989433311,0.0,66.46310423517549,0.0,1701188959.971784,0.0,0.0,0.0
54,2023-11-28 17:29:16.968583,1701188956.968583,111.1538122553797,0.0,63.02535746439056,0.0,106.57014989433311,0.0,66.46310423517549,0.0,1701188959.971784,0.0,0.0,0.0
55,2023-11-28 17:29:16.989600,1701188956.9896,111.1538122553797,0.0,63.02535746439056,0.0,106.57014989433311,0.0,66.46310423517549,0.0,1701188959.971784,0.0,0.0,0.0
56,2023-11-28 17:29:17.020230,1701188957.02023,111.1538122553797,0.0,63.02535746439056,0.0,106.57014989433311,0.0,66.46310423517549,0.0,1701188959.971784,0.0,0.0,0.0
57,2023-11-28 17:29:17.041212,1701188957.041212,111.1538122553797,0.0,63.02535746439056,0.0,106.57014989433311,0.0,66.46310423517549,0.0,1701188959.971784,0.0,0.0,0.0
58,2023-11-28 17:29:17.071381,1701188957.071381,111.1538122553797,0.0,63.02535746439056,0.0,106.57014989433311,0.0,66.46310423517549,0.0,1701188959.971784,0.0,0.0,0.0
59,2023-11-28 17:29:17.092176,1701188957.092176,111.1538122553797,0.0,63.02535746439056,0.0,106.57014989433311,0.0,66.46310423517549,0.0,1701188959.971784,0.0,0.0,0.0
60,2023-11-28 17:29:17.121888,1701188957.121888,111.1538122553797,0.0,63.02535746439056,0.0,106.57014989433311,0.0,66.46310423517549,0.0,1701188959.971784,0.0,0.0,0.0
61,2023-11-28 17:29:17.143332,1701188957.143332,111.1538122553797,0.0,63.02535746439056,0.0,106.57014989433311,0.0,66.46310423517549,0.0,1701188959.971784,0.0,0.0,0.0
62,2023-11-28 17:29:17.172919,1701188957.172919,111.1538122553797,0.0,63.02535746439056,0.0,106.57014989433311,0.0,66.46310423517549,0.0,1701188959.971784,0.0,0.0,0.0
63,2023-11-28 17:29:17.194988,1701188957.194988,111.1538122553797,0.0,63.02535746439056,0.0,106.57014989433311,0.0,66.46310423517549,0.0,1701188959.971784,0.0,0.0,0.0
64,2023-11-28 17:29:17.224854,1701188957.224854,111.1538122553797,0.0,63.02535746439056,0.0,106.57014989433311,0.0,66.46310423517549,0.0,1701188959.971784,0.0,0.0,0.0
65,2023-11-28 17:29:17.245953,1701188957.245953,111.1538122553797,0.0,63.02535746439056,0.0,106.57014989433311,0.0,66.46310423517549,0.0,1701188959.971784,0.0,0.0,0.0
66,2023-11-28 17:29:17.276002,1701188957.276002,111.1538122553797,0.0,63.02535746439056,0.0,106.57014989433311,0.0,66.46310423517549,0.0,1701188959.971784,0.0,0.0,0.0
67,2023-11-28 17:29:17.298093,1701188957.298093,111.1538122553797,0.0,63.02535746439056,0.0,106.57014989433311,0.0,66.46310423517549,0.0,1701188959.971784,0.0,0.0,0.0
68,2023-11-28 17:29:17.327810,1701188957.32781,111.1538122553797,0.0,63.02535746439056,0.0,106.57014989433311,0.0,66.46310423517549,0.0,1701188959.971784,0.0,0.0,0.0
69,2023-11-28 17:29:17.349522,1701188957.349522,111.1538122553797,0.0,63.02535746439056,0.0,106.57014989433311,0.0,66.46310423517549,0.0,1701188959.971784,0.0,0.0,0.0
70,2023-11-28 17:29:17.379939,1701188957.379939,111.1538122553797,0.0,63.02535746439056,0.0,106.57014989433311,0.0,66.46310423517549,0.0,1701188959.971784,0.0,0.0,0.0
71,2023-11-28 17:29:17.401786,1701188957.401786,111.1538122553797,0.0,63.02535746439056,0.0,106.57014989433311,0.0,66.46310423517549,0.0,1701188959.971784,0.0,0.0,0.0
72,2023-11-28 17:29:17.431825,1701188957.431825,111.1538122553797,0.0,63.02535746439056,0.0,106.57014989433311,0.0,66.46310423517549,0.0,1701188959.971784,0.0,0.0,0.0
73,2023-11-28 17:29:17.453488,1701188957.453488,111.1538122553797,0.0,63.02535746439056,0.0,106.57014989433311,0.0,66.46310423517549,0.0,1701188959.971784,0.0,0.0,0.0
74,2023-11-28 17:29:17.483785,1701188957.483785,111.1538122553797,0.0,63.02535746439056,0.0,106.57014989433311,0.0,66.46310423517549,0.0,1701188959.971784,0.0,0.0,0.0
75,2023-11-28 17:29:17.505479,1701188957.505479,111.1538122553797,0.0,63.02535746439056,0.0,106.57014989433311,0.0,66.46310423517549,0.0,1701188959.971784,0.0,0.0,0.0
76,2023-11-28 17:29:17.535809,1701188957.535809,111.1538122553797,0.0,63.02535746439056,0.0,106.57014989433311,0.0,66.46310423517549,0.0,1701188959.971784,0.0,0.0,0.0
77,2023-11-28 17:29:17.556696,1701188957.556696,111.1538122553797,0.0,63.02535746439056,0.0,106.57014989433311,0.0,66.46310423517549,0.0,1701188959.971784,0.0,0.0,0.0
78,2023-11-28 17:29:17.586955,1701188957.586955,111.1538122553797,0.0,63.02535746439056,0.0,106.57014989433311,0.0,66.46310423517549,0.0,1701188959.971784,0.0,0.0,0.0
79,2023-11-28 17:29:17.609080,1701188957.60908,111.1538122553797,0.0,63.02535746439056,0.0,106.57014989433311,0.0,66.46310423517549,0.0,1701188959.971784,0.0,0.0,0.0
80,2023-11-28 17:29:17.639077,1701188957.639077,111.1538122553797,0.0,63.02535746439056,0.0,106.57014989433311,0.0,66.46310423517549,0.0,1701188959.971784,0.0,0.0,0.0
81,2023-11-28 17:29:17.660489,1701188957.660489,111.1538122553797,0.0,63.02535746439056,0.0,106.57014989433311,0.0,66.46310423517549,0.0,1701188959.971784,0.0,0.0,0.0
82,2023-11-28 17:29:17.690941,1701188957.690941,111.1538122553797,0.0,63.02535746439056,0.0,106.57014989433311,0.0,66.46310423517549,0.0,1701188959.971784,0.0,0.0,0.0
83,2023-11-28 17:29:17.713266,1701188957.713266,111.1538122553797,0.0,63.02535746439056,0.0,106.57014989433311,0.0,66.46310423517549,0.0,1701188959.971784,0.0,0.0,0.0
84,2023-11-28 17:29:17.743106,1701188957.743106,111.1538122553797,0.0,63.02535746439056,0.0,106.57014989433311,0.0,66.46310423517549,0.0,1701188959.971784,0.0,0.0,0.0
85,2023-11-28 17:29:17.764557,1701188957.764557,111.1538122553797,0.0,63.02535746439056,0.0,106.57014989433311,0.0,66.46310423517549,0.0,1701188959.971784,0.0,0.0,0.0
86,2023-11-28 17:29:17.795237,1701188957.795237,111.1538122553797,0.0,63.02535746439056,0.0,106.57014989433311,0.0,66.46310423517549,0.0,1701188959.971784,0.0,0.0,0.0
87,2023-11-28 17:29:17.816533,1701188957.816533,111.1538122553797,0.0,63.02535746439056,0.0,106.57014989433311,0.0,66.46310423517549,0.0,1701188959.971784,0.0,0.0,0.0
88,2023-11-28 17:29:17.846943,1701188957.846943,111.1538122553797,0.0,63.02535746439056,0.0,106.57014989433311,0.0,66.46310423517549,0.0,1701188959.971784,0.0,0.0,0.0
89,2023-11-28 17:29:17.868628,1701188957.868628,111.1538122553797,0.0,63.02535746439056,0.0,106.57014989433311,0.0,66.46310423517549,0.0,1701188959.971784,0.0,0.0,0.0
90,2023-11-28 17:29:17.898793,1701188957.898793,111.1538122553797,0.0,63.02535746439056,0.0,106.57014989433311,0.0,66.46310423517549,0.0,1701188959.971784,0.0,0.0,0.0
91,2023-11-28 17:29:17.919730,1701188957.91973,111.1538122553797,0.0,63.02535746439056,0.0,106.57014989433311,0.0,66.46310423517549,0.0,1701188959.971784,0.0,0.0,0.0
92,2023-11-28 17:29:17.949861,1701188957.949861,111.1538122553797,0.0,63.02535746439056,0.0,106.57014989433311,0.0,66.46310423517549,0.0,1701188959.971784,0.0,0.0,0.0
93,2023-11-28 17:29:17.971510,1701188957.97151,111.1538122553797,0.0,63.02535746439056,0.0,106.57014989433311,0.0,66.46310423517549,0.0,1701188959.971784,0.0,0.0,0.0
94,2023-11-28 17:29:18.001949,1701188958.001949,111.1538122553797,0.0,63.02535746439056,0.0,106.57014989433311,0.0,66.46310423517549,0.0,1701188959.971784,0.0,0.0,0.0
95,2023-11-28 17:29:18.023496,1701188958.023496,111.1538122553797,0.0,63.02535746439056,0.0,106.57014989433311,0.0,66.46310423517549,0.0,1701188959.971784,0.0,0.0,0.0
96,2023-11-28 17:29:18.054095,1701188958.054095,111.1538122553797,0.0,63.02535746439056,0.0,106.57014989433311,0.0,66.46310423517549,0.0,1701188959.971784,0.0,0.0,0.0
97,2023-11-28 17:29:18.075591,1701188958.075591,111.1538122553797,0.0,63.02535746439056,0.0,106.57014989433311,0.0,66.46310423517549,0.0,1701188959.971784,0.0,0.0,0.0
98,2023-11-28 17:29:18.105866,1701188958.105866,111.1538122553797,0.0,63.02535746439056,0.0,106.57014989433311,0.0,66.46310423517549,0.0,1701188959.971784,0.0,0.0,0.0
99,2023-11-28 17:29:18.127582,1701188958.127582,111.1538122553797,0.0,63.02535746439056,0.0,106.57014989433311,0.0,66.46310423517549,0.0,1701188959.971784,0.0,0.0,0.0
100,2023-11-28 17:29:18.157824,1701188958.157824,111.1538122553797,0.0,63.02535746439056,0.0,106.57014989433311,0.0,66.46310423517549,0.0,1701188959.971784,0.0,0.0,0.0
101,2023-11-28 17:29:18.179535,1701188958.179535,111.1538122553797,0.0,63.02535746439056,0.0,106.57014989433311,0.0,66.46310423517549,0.0,1701188959.971784,0.0,0.0,0.0
102,2023-11-28 17:29:18.209868,1701188958.209868,111.1538122553797,0.0,63.02535746439056,0.0,106.57014989433311,0.0,66.46310423517549,0.0,1701188959.971784,0.0,0.0,0.0
103,2023-11-28 17:29:18.231599,1701188958.231599,111.1538122553797,0.0,63.02535746439056,0.0,106.57014989433311,0.0,66.46310423517549,0.0,1701188959.971784,0.0,0.0,0.0
104,2023-11-28 17:29:18.261818,1701188958.261818,111.1538122553797,0.0,63.02535746439056,0.0,106.57014989433311,0.0,66.46310423517549,0.0,1701188959.971784,0.0,0.0,0.0
105,2023-11-28 17:29:18.282739,1701188958.282739,111.1538122553797,0.0,63.02535746439056,0.0,106.57014989433311,0.0,66.46310423517549,0.0,1701188959.971784,0.0,0.0,0.0
106,2023-11-28 17:29:18.312557,1701188958.312557,111.1538122553797,0.0,63.02535746439056,0.0,106.57014989433311,0.0,66.46310423517549,0.0,1701188959.971784,0.0,0.0,0.0
107,2023-11-28 17:29:18.334105,1701188958.334105,111.1538122553797,0.0,63.02535746439056,0.0,106.57014989433311,0.0,66.46310423517549,0.0,1701188959.971784,0.0,0.0,0.0
108,2023-11-28 17:29:18.364436,1701188958.364436,111.1538122553797,0.0,63.02535746439056,0.0,106.57014989433311,0.0,66.46310423517549,0.0,1701188959.971784,0.0,0.0,0.0
109,2023-11-28 17:29:18.386127,1701188958.386127,111.1538122553797,0.0,63.02535746439056,0.0,106.57014989433311,0.0,66.46310423517549,0.0,1701188959.971784,0.0,0.0,0.0
110,2023-11-28 17:29:18.416564,1701188958.416564,111.1538122553797,0.0,63.02535746439056,0.0,106.57014989433311,0.0,66.46310423517549,0.0,1701188959.971784,0.0,0.0,0.0
111,2023-11-28 17:29:18.438196,1701188958.438196,111.1538122553797,0.0,63.02535746439056,0.0,106.57014989433311,0.0,66.46310423517549,0.0,1701188959.971784,0.0,0.0,0.0
112,2023-11-28 17:29:18.468437,1701188958.468437,111.1538122553797,0.0,63.02535746439056,0.0,106.57014989433311,0.0,66.46310423517549,0.0,1701188959.971784,0.0,0.0,0.0
113,2023-11-28 17:29:18.489258,1701188958.489258,111.1538122553797,0.0,63.02535746439056,0.0,106.57014989433311,0.0,66.46310423517549,0.0,1701188959.971784,0.0,0.0,0.0
114,2023-11-28 17:29:18.519522,1701188958.519522,111.1538122553797,0.0,63.02535746439056,0.0,106.57014989433311,0.0,66.46310423517549,0.0,1701188959.971784,0.0,0.0,0.0
115,2023-11-28 17:29:18.541165,1701188958.541165,111.1538122553797,0.0,63.02535746439056,0.0,106.57014989433311,0.0,66.46310423517549,0.0,1701188959.971784,0.0,0.0,0.0
116,2023-11-28 17:29:18.571467,1701188958.571467,111.1538122553797,0.0,63.02535746439056,0.0,106.57014989433311,0.0,66.46310423517549,0.0,1701188959.971784,0.0,0.0,0.0
117,2023-11-28 17:29:18.593187,1701188958.593187,111.1538122553797,0.0,63.02535746439056,0.0,106.57014989433311,0.0,66.46310423517549,0.0,1701188959.971784,0.0,0.0,0.0
118,2023-11-28 17:29:18.623401,1701188958.623401,111.1538122553797,0.0,63.02535746439056,0.0,106.57014989433311,0.0,66.46310423517549,0.0,1701188959.971784,0.0,0.0,0.0
119,2023-11-28 17:29:18.644275,1701188958.644275,111.1538122553797,0.0,63.02535746439056,0.0,106.57014989433311,0.0,66.46310423517549,0.0,1701188959.971784,0.0,0.0,0.0
120,2023-11-28 17:29:18.674473,1701188958.674473,111.1538122553797,0.0,63.02535746439056,0.0,106.57014989433311,0.0,66.46310423517549,0.0,1701188959.971784,0.0,0.0,0.0
121,2023-11-28 17:29:18.696170,1701188958.69617,111.1538122553797,0.0,63.02535746439056,0.0,106.57014989433311,0.0,66.46310423517549,0.0,1701188959.971784,0.0,0.0,0.0
122,2023-11-28 17:29:18.726380,1701188958.72638,111.1538122553797,0.0,63.02535746439056,0.0,106.57014989433311,0.0,66.46310423517549,0.0,1701188959.971784,0.0,0.0,0.0
123,2023-11-28 17:29:18.747328,1701188958.747328,111.1538122553797,0.0,63.02535746439056,0.0,106.57014989433311,0.0,66.46310423517549,0.0,1701188959.971784,0.0,0.0,0.0
124,2023-11-28 17:29:18.777552,1701188958.777552,111.1538122553797,0.0,63.02535746439056,0.0,106.57014989433311,0.0,66.46310423517549,0.0,1701188959.971784,0.0,0.0,0.0
125,2023-11-28 17:29:18.799136,1701188958.799136,111.1538122553797,0.0,63.02535746439056,0.0,106.57014989433311,0.0,66.46310423517549,0.0,1701188959.971784,0.0,0.0,0.0
126,2023-11-28 17:29:18.829574,1701188958.829574,111.1538122553797,0.0,63.02535746439056,0.0,106.57014989433311,0.0,66.46310423517549,0.0,1701188959.971784,0.0,0.0,0.0
127,2023-11-28 17:29:18.851245,1701188958.851245,111.1538122553797,0.0,63.02535746439056,0.0,106.57014989433311,0.0,66.46310423517549,0.0,1701188959.971784,0.0,0.0,0.0
128,2023-11-28 17:29:18.881464,1701188958.881464,111.1538122553797,0.0,63.02535746439056,0.0,106.57014989433311,0.0,66.46310423517549,0.0,1701188959.971784,0.0,0.0,0.0
129,2023-11-28 17:29:18.903215,1701188958.903215,111.1538122553797,0.0,63.02535746439056,0.0,106.57014989433311,0.0,66.46310423517549,0.0,1701188959.971784,0.0,0.0,0.0
130,2023-11-28 17:29:18.933466,1701188958.933466,111.1538122553797,0.0,63.02535746439056,0.0,106.57014989433311,0.0,66.46310423517549,0.0,1701188959.971784,0.0,0.0,0.0
131,2023-11-28 17:29:18.955218,1701188958.955218,111.1538122553797,0.0,63.02535746439056,0.0,106.57014989433311,0.0,66.46310423517549,0.0,1701188959.971784,0.0,0.0,0.0
132,2023-11-28 17:29:18.985493,1701188958.985493,111.1538122553797,0.0,63.02535746439056,0.0,106.57014989433311,0.0,66.46310423517549,0.0,1701188959.971784,0.0,0.0,0.0
133,2023-11-28 17:29:19.007217,1701188959.007217,111.1538122553797,0.0,63.02535746439056,0.0,106.57014989433311,0.0,66.46310423517549,0.0,1701188959.971784,0.0,0.0,0.0
134,2023-11-28 17:29:19.037411,1701188959.037411,111.1538122553797,0.0,63.02535746439056,0.0,106.57014989433311,0.0,66.46310423517549,0.0,1701188959.971784,0.0,0.0,0.0
135,2023-11-28 17:29:19.058260,1701188959.05826,111.1538122553797,0.0,63.02535746439056,0.0,106.57014989433311,0.0,66.46310423517549,0.0,1701188959.971784,0.0,0.0,0.0
136,2023-11-28 17:29:19.088479,1701188959.088479,111.1538122553797,0.0,63.02535746439056,0.0,106.57014989433311,0.0,66.46310423517549,0.0,1701188959.971784,0.0,0.0,0.0
137,2023-11-28 17:29:19.110144,1701188959.110144,111.1538122553797,0.0,63.02535746439056,0.0,106.57014989433311,0.0,66.46310423517549,0.0,1701188959.971784,0.0,0.0,0.0
138,2023-11-28 17:29:19.140407,1701188959.140407,111.1538122553797,0.0,63.02535746439056,0.0,106.57014989433311,0.0,66.46310423517549,0.0,1701188959.971784,0.0,0.0,0.0
139,2023-11-28 17:29:19.161342,1701188959.161342,111.1538122553797,0.0,63.02535746439056,0.0,106.57014989433311,0.0,66.46310423517549,0.0,1701188959.971784,0.0,0.0,0.0
140,2023-11-28 17:29:19.192521,1701188959.192521,111.1538122553797,0.0,63.02535746439056,0.0,106.57014989433311,0.0,66.46310423517549,0.0,1701188959.971784,0.0,0.0,0.0
141,2023-11-28 17:29:19.213346,1701188959.213346,111.1538122553797,0.0,63.02535746439056,0.0,106.57014989433311,0.0,66.46310423517549,0.0,1701188959.971784,0.0,0.0,0.0
142,2023-11-28 17:29:19.243630,1701188959.24363,111.1538122553797,0.0,63.02535746439056,0.0,106.57014989433311,0.0,66.46310423517549,0.0,1701188959.971784,0.0,0.0,0.0
143,2023-11-28 17:29:19.265157,1701188959.265157,111.1538122553797,0.0,63.02535746439056,0.0,106.57014989433311,0.0,66.46310423517549,0.0,1701188959.971784,0.0,0.0,0.0
144,2023-11-28 17:29:19.295521,1701188959.295521,111.1538122553797,0.0,63.02535746439056,0.0,106.57014989433311,0.0,66.46310423517549,0.0,1701188959.971784,0.0,0.0,0.0
145,2023-11-28 17:29:19.317168,1701188959.317168,111.1538122553797,0.0,63.02535746439056,0.0,106.57014989433311,0.0,66.46310423517549,0.0,1701188959.971784,0.0,0.0,0.0
146,2023-11-28 17:29:19.347535,1701188959.347535,111.1538122553797,0.0,63.02535746439056,0.0,106.57014989433311,0.0,66.46310423517549,0.0,1701188959.971784,0.0,0.0,0.0
147,2023-11-28 17:29:19.369245,1701188959.369245,111.1538122553797,0.0,63.02535746439056,0.0,106.57014989433311,0.0,66.46310423517549,0.0,1701188959.971784,0.0,0.0,0.0
148,2023-11-28 17:29:19.399455,1701188959.399455,111.1538122553797,0.0,63.02535746439056,0.0,106.57014989433311,0.0,66.46310423517549,0.0,1701188959.971784,0.0,0.0,0.0
149,2023-11-28 17:29:19.421212,1701188959.421212,111.1538122553797,0.0,63.02535746439056,0.0,106.57014989433311,0.0,66.46310423517549,0.0,1701188959.971784,0.0,0.0,0.0
150,2023-11-28 17:29:19.451477,1701188959.451477,111.1538122553797,0.0,63.02535746439056,0.0,106.57014989433311,0.0,66.46310423517549,0.0,1701188959.971784,0.0,0.0,0.0
151,2023-11-28 17:29:19.472384,1701188959.472384,111.1538122553797,0.0,63.02535746439056,0.0,106.57014989433311,0.0,66.46310423517549,0.0,1701188959.971784,0.0,0.0,0.0
152,2023-11-28 17:29:19.502499,1701188959.502499,111.1538122553797,0.0,63.02535746439056,0.0,106.57014989433311,0.0,66.46310423517549,0.0,1701188959.971784,0.0,0.0,0.0
153,2023-11-28 17:29:19.524238,1701188959.524238,111.1538122553797,0.0,63.02535746439056,0.0,106.57014989433311,0.0,66.46310423517549,0.0,1701188959.971784,0.0,0.0,0.0
154,2023-11-28 17:29:19.554578,1701188959.554578,111.1538122553797,0.0,63.02535746439056,0.0,106.57014989433311,0.0,66.46310423517549,0.0,1701188959.971784,0.0,0.0,0.0
155,2023-11-28 17:29:19.576255,1701188959.576255,111.1538122553797,0.0,63.02535746439056,0.0,106.57014989433311,0.0,66.46310423517549,0.0,1701188959.971784,0.0,0.0,0.0
156,2023-11-28 17:29:19.606530,1701188959.60653,111.1538122553797,0.0,63.02535746439056,0.0,106.57014989433311,0.0,66.46310423517549,0.0,1701188959.971784,0.0,0.0,0.0
157,2023-11-28 17:29:19.628141,1701188959.628141,111.1538122553797,0.0,63.02535746439056,0.0,106.57014989433311,0.0,66.46310423517549,0.0,1701188959.971784,0.0,0.0,0.0
158,2023-11-28 17:29:19.658531,1701188959.658531,111.1538122553797,0.0,63.02535746439056,0.0,106.57014989433311,0.0,66.46310423517549,0.0,1701188959.971784,0.0,0.0,0.0
159,2023-11-28 17:29:19.680229,1701188959.680229,111.1538122553797,0.0,63.02535746439056,0.0,106.57014989433311,0.0,66.46310423517549,0.0,1701188959.971784,0.0,0.0,0.0
160,2023-11-28 17:29:19.710463,1701188959.710463,111.1538122553797,0.0,63.02535746439056,0.0,106.57014989433311,0.0,66.46310423517549,0.0,1701188959.971784,0.0,0.0,0.0
161,2023-11-28 17:29:19.732179,1701188959.732179,111.1538122553797,0.0,63.02535746439056,0.0,106.57014989433311,0.0,66.46310423517549,0.0,1701188959.971784,0.0,0.0,0.0
162,2023-11-28 17:29:19.762413,1701188959.762413,111.1538122553797,0.0,63.02535746439056,0.0,106.57014989433311,0.0,66.46310423517549,0.0,1701188959.971784,0.0,0.0,0.0
163,2023-11-28 17:29:19.783421,1701188959.783421,111.1538122553797,0.0,63.02535746439056,0.0,106.57014989433311,0.0,66.46310423517549,0.0,1701188959.971784,0.0,0.0,0.0
164,2023-11-28 17:29:19.813633,1701188959.813633,111.1538122553797,0.0,63.02535746439056,0.0,106.57014989433311,0.0,66.46310423517549,0.0,1701188959.971784,0.0,0.0,0.0
165,2023-11-28 17:29:19.835236,1701188959.835236,111.1538122553797,0.0,63.02535746439056,0.0,106.57014989433311,0.0,66.46310423517549,0.0,1701188959.971784,0.0,0.0,0.0
166,2023-11-28 17:29:19.865529,1701188959.865529,111.1538122553797,0.0,63.02535746439056,0.0,106.57014989433311,0.0,66.46310423517549,0.0,1701188959.971784,0.0,0.0,0.0
167,2023-11-28 17:29:19.887256,1701188959.887256,111.1538122553797,0.0,63.02535746439056,0.0,106.57014989433311,0.0,66.46310423517549,0.0,1701188959.971784,0.0,0.0,0.0
168,2023-11-28 17:29:19.917456,1701188959.917456,111.1538122553797,0.0,63.02535746439056,0.0,106.57014989433311,0.0,66.46310423517549,0.0,1701188959.971784,0.0,0.0,0.0
169,2023-11-28 17:29:19.938406,1701188959.938406,111.1538122553797,0.0,63.02535746439056,0.0,106.57014989433311,0.0,66.46310423517549,0.0,1701188959.971784,0.0,0.0,0.0
170,2023-11-28 17:29:19.968589,1701188959.968589,111.1538122553797,0.0,63.02535746439056,0.0,106.57014989433311,0.0,66.46310423517549,0.0,1701188959.971784,0.0,0.0,0.0
171,2023-11-28 17:29:19.990183,1701188959.990183,111.1538122553797,0.0,63.02535746439056,0.0,106.57014989433311,0.0,66.46310423517549,0.0,1701188959.991865,0.0,0.0,0.0
172,2023-11-28 17:29:20.020408,1701188960.020408,111.1538122553797,0.0,63.02535746439056,0.0,106.57014989433311,0.0,66.46310423517549,0.0,1701188960.021866,0.0,0.0,0.0
173,2023-11-28 17:29:20.041285,1701188960.041285,111.1538122553797,116.38523864746097,63.02535746439056,59.643016815185554,106.57014989433311,114.18937683105467,66.46310423517549,63.61669540405274,1701188960.045003,0.0,0.0,0.0
174,2023-11-28 17:29:20.072923,1701188960.072923,111.1538122553797,116.38523864746097,63.02535746439056,59.643016815185554,106.57014989433311,114.18937683105467,66.46310423517549,63.61669540405274,1701188960.077516,0.0,0.0,0.0
175,2023-11-28 17:29:20.094229,1701188960.094229,107.71606548459476,116.38523864746097,60.160568488736445,59.643016815185554,103.705360918679,114.18937683105467,64.1712730546522,63.61669540405274,1701188960.089042,0.0,0.0,0.0
176,2023-11-28 17:29:20.126553,1701188960.126553,96.2569095819783,116.38523864746097,48.12845479098915,59.643016815185554,91.1002894258009,114.18937683105467,51.56620156177409,63.61669540405274,1701188960.121864,0.0,0.0,0.0
177,2023-11-28 17:29:20.148197,1701188960.148197,85.94366926962348,116.38523864746097,37.81521447863433,59.643016815185554,79.64113352318442,114.18937683105467,40.10704565915762,63.61669540405274,1701188960.145042,0.0,0.0,0.0
178,2023-11-28 17:29:20.180611,1701188960.180611,67.03606203030631,116.38523864746097,22.91831180523293,59.643016815185554,61.30648407899809,114.18937683105467,27.501974166279517,63.61669540405274,1701188960.179255,0.0,0.0,0.0
179,2023-11-28 17:29:20.202242,1701188960.202242,52.71211715203574,116.38523864746097,16.615776058793873,59.643016815185554,49.2743703812508,114.18937683105467,22.91831180523293,63.61669540405274,1701188960.200935,0.0,0.0,0.0
180,2023-11-28 17:29:20.234598,1701188960.234598,32.65859432245692,116.38523864746097,17.76169164905552,59.643016815185554,35.52338329811104,114.18937683105467,20.62648062470964,63.61669540405274,1701188960.233992,0.0,0.0,0.0
181,2023-11-28 17:29:20.256262,1701188960.256262,22.345354010102103,116.38523864746097,22.91831180523293,59.643016815185554,29.220847551671984,114.18937683105467,20.62648062470964,63.61669540405274,1701188960.25346,0.0,0.0,0.0
182,2023-11-28 17:29:20.288564,1701188960.288564,21.199438419840455,116.38523864746097,25.21014298575622,59.643016815185554,25.783100780887047,114.18937683105467,27.501974166279517,63.61669540405274,1701188960.283947,0.0,0.0,0.0
183,2023-11-28 17:29:20.310231,1701188960.310231,26.92901637114869,116.38523864746097,28.64788975654116,59.643016815185554,26.35605857601787,114.18937683105467,26.35605857601787,63.61669540405274,1701188960.305372,0.0,0.0,0.0
184,2023-11-28 17:29:20.342637,1701188960.342637,32.65859432245692,116.38523864746097,28.64788975654116,59.643016815185554,31.51267873219528,114.18937683105467,28.07493196141034,63.61669540405274,1701188960.344932,0.0,0.0,0.0
185,2023-11-28 17:29:20.364302,1701188960.364302,32.0856365273261,116.38523864746097,28.64788975654116,59.643016815185554,37.24225668350351,114.18937683105467,28.07493196141034,63.61669540405274,1701188960.362827,0.0,0.0,0.0
186,2023-11-28 17:29:20.396758,1701188960.396758,40.10704565915762,116.38523864746097,28.64788975654116,59.643016815185554,38.96113006889598,114.18937683105467,28.07493196141034,63.61669540405274,1701188960.394971,0.0,0.0,0.0
187,2023-11-28 17:29:20.418177,1701188960.418177,46.9825392007275,116.38523864746097,28.64788975654116,59.643016815185554,46.40958140559668,114.18937683105467,28.07493196141034,63.61669540405274,1701188960.41672,0.0,0.0,0.0
188,2023-11-28 17:29:20.450471,1701188960.450471,46.9825392007275,116.38523864746097,28.64788975654116,59.643016815185554,46.9825392007275,114.18937683105467,28.07493196141034,63.61669540405274,1701188960.44928,0.0,0.0,0.0
189,2023-11-28 17:29:20.472219,1701188960.472219,52.13915935690491,116.38523864746097,28.64788975654116,59.643016815185554,52.71211715203574,114.18937683105467,28.07493196141034,63.61669540405274,1701188960.469465,0.0,0.0,0.0
190,2023-11-28 17:29:20.504548,1701188960.504548,55.00394833255903,116.38523864746097,28.64788975654116,59.643016815185554,55.00394833255903,114.18937683105467,28.07493196141034,63.61669540405274,1701188960.500553,0.0,0.0,0.0
191,2023-11-28 17:29:20.526254,1701188960.526254,60.160568488736445,116.38523864746097,29.220847551671984,59.643016815185554,60.73352628386726,114.18937683105467,28.64788975654116,63.61669540405274,1701188960.523029,0.0,0.0,0.0
192,2023-11-28 17:29:20.558678,1701188960.558678,62.45239966925973,116.38523864746097,29.79380534680281,59.643016815185554,63.02535746439056,114.18937683105467,35.52338329811104,63.61669540405274,1701188960.558051,0.0,0.0,0.0
193,2023-11-28 17:29:20.580280,1701188960.58028,67.60901982543714,116.38523864746097,37.81521447863433,59.643016815185554,65.89014644004466,114.18937683105467,43.54479242994257,63.61669540405274,1701188960.579735,0.0,0.0,0.0
194,2023-11-28 17:29:20.612684,1701188960.612684,69.90085100596043,116.38523864746097,60.160568488736445,59.643016815185554,69.90085100596043,114.18937683105467,52.13915935690491,63.61669540405274,1701188960.607958,0.0,0.0,0.0
195,2023-11-28 17:29:20.634219,1701188960.634219,75.63042895726866,116.38523864746097,73.33859777674537,59.643016815185554,73.91155557187619,114.18937683105467,56.14986392282068,63.61669540405274,1701188960.629696,0.0,0.0,0.0
196,2023-11-28 17:29:20.666543,1701188960.666543,77.34930234266115,116.38523864746097,74.48451336700703,59.643016815185554,75.63042895726866,114.18937683105467,58.44169510334397,63.61669540405274,1701188960.661759,0.0,0.0,0.0
197,2023-11-28 17:29:20.688248,1701188960.688248,83.07888029396936,116.38523864746097,69.90085100596043,59.643016815185554,79.0681757280536,114.18937683105467,58.44169510334397,63.61669540405274,1701188960.684136,0.0,0.0,0.0
198,2023-11-28 17:29:20.720655,1701188960.720655,85.37071147449267,116.38523864746097,62.45239966925973,59.643016815185554,80.21409131831524,114.18937683105467,57.86873730821315,63.61669540405274,1701188960.716038,0.0,0.0,0.0
199,2023-11-28 17:29:20.742227,1701188960.742227,92.24620501606256,116.38523864746097,57.86873730821315,59.643016815185554,80.78704911344607,114.18937683105467,57.86873730821315,63.61669540405274,1701188960.737607,0.0,0.0,0.0
200,2023-11-28 17:29:20.774522,1701188960.774522,95.11099399171664,116.38523864746097,60.160568488736445,59.643016815185554,89.95437383553924,114.18937683105467,57.86873730821315,63.61669540405274,1701188960.770374,0.0,0.0,0.0
201,2023-11-28 17:29:20.796232,1701188960.796232,95.11099399171664,116.38523864746097,57.86873730821315,59.643016815185554,101.41352973815572,114.18937683105467,58.44169510334397,63.61669540405274,1701188960.791281,0.0,0.0,0.0
202,2023-11-28 17:29:20.828490,1701188960.82849,101.98648753328654,116.38523864746097,59.58761069360562,59.643016815185554,103.705360918679,114.18937683105467,67.60901982543714,63.61669540405274,1701188960.82865,0.0,0.0,0.0
203,2023-11-28 17:29:20.850208,1701188960.850208,103.1324031235482,116.38523864746097,57.86873730821315,59.643016815185554,102.55944532841735,114.18937683105467,67.60901982543714,63.61669540405274,1701188960.846266,0.0,0.0,0.0
204,2023-11-28 17:29:20.882578,1701188960.882578,107.71606548459476,116.38523864746097,61.87944187412892,59.643016815185554,108.8619810748564,114.18937683105467,65.31718864491384,63.61669540405274,1701188960.877445,0.0,0.0,0.0
205,2023-11-28 17:29:20.904235,1701188960.904235,110.00789666511804,116.38523864746097,61.87944187412892,59.643016815185554,109.43493886998723,114.18937683105467,67.60901982543714,63.61669540405274,1701188960.899633,0.0,0.0,0.0
206,2023-11-28 17:29:20.936513,1701188960.936513,111.1538122553797,116.38523864746097,59.58761069360562,59.643016815185554,111.1538122553797,114.18937683105467,65.31718864491384,63.61669540405274,1701188960.942027,0.0,0.0,0.0
207,2023-11-28 17:29:20.958224,1701188960.958224,111.1538122553797,116.38523864746097,59.58761069360562,59.643016815185554,111.1538122553797,114.18937683105467,66.46310423517549,63.61669540405274,1701188960.961967,0.0,0.0,0.0
208,2023-11-28 17:29:20.990671,1701188960.990671,111.72677005051052,116.38523864746097,59.58761069360562,59.643016815185554,111.1538122553797,114.18937683105467,65.89014644004466,63.61669540405274,1701188960.995486,0.0,0.0,0.0
209,2023-11-28 17:29:21.012281,1701188961.012281,111.72677005051052,116.38523864746097,59.58761069360562,59.643016815185554,111.1538122553797,114.18937683105467,66.46310423517549,63.61669540405274,1701188961.006551,0.0,0.0,0.0
210,2023-11-28 17:29:21.044679,1701188961.044679,111.72677005051052,116.38523864746097,59.58761069360562,59.643016815185554,111.1538122553797,114.18937683105467,65.89014644004466,63.61669540405274,1701188961.045265,0.0,0.0,0.0
211,2023-11-28 17:29:21.066240,1701188961.06624,111.72677005051052,116.38523864746097,59.58761069360562,59.643016815185554,111.1538122553797,114.18937683105467,65.89014644004466,63.61669540405274,1701188961.063132,0.0,0.0,0.0
212,2023-11-28 17:29:21.098646,1701188961.098646,111.72677005051052,116.38523864746097,59.58761069360562,59.643016815185554,111.1538122553797,114.18937683105467,65.89014644004466,63.61669540405274,1701188961.099467,0.0,0.0,0.0
213,2023-11-28 17:29:21.120232,1701188961.120232,111.72677005051052,116.38523864746097,59.58761069360562,59.643016815185554,111.1538122553797,114.18937683105467,65.89014644004466,63.61669540405274,1701188961.117186,0.0,0.0,0.0
214,2023-11-28 17:29:21.152615,1701188961.152615,111.72677005051052,116.38523864746097,59.58761069360562,59.643016815185554,111.1538122553797,114.18937683105467,65.89014644004466,63.61669540405274,1701188961.155738,0.0,0.0,0.0
215,2023-11-28 17:29:21.174269,1701188961.174269,111.72677005051052,116.38523864746097,59.58761069360562,59.643016815185554,111.1538122553797,114.18937683105467,65.89014644004466,63.61669540405274,1701188961.173541,0.0,0.0,0.0
216,2023-11-28 17:29:21.206565,1701188961.206565,111.72677005051052,116.38523864746097,59.58761069360562,59.643016815185554,111.1538122553797,114.18937683105467,65.89014644004466,63.61669540405274,1701188961.203601,0.0,0.0,0.0
217,2023-11-28 17:29:21.228244,1701188961.228244,111.72677005051052,116.38523864746097,59.58761069360562,59.643016815185554,111.1538122553797,114.18937683105467,65.89014644004466,63.61669540405274,1701188961.223593,0.0,0.0,0.0
218,2023-11-28 17:29:21.260555,1701188961.260555,111.72677005051052,116.38523864746097,59.58761069360562,59.643016815185554,111.1538122553797,114.18937683105467,65.89014644004466,63.61669540405274,1701188961.263613,0.0,0.0,0.0
219,2023-11-28 17:29:21.282244,1701188961.282244,111.72677005051052,116.38523864746097,59.58761069360562,59.643016815185554,111.1538122553797,114.18937683105467,65.89014644004466,63.61669540405274,1701188961.28354,0.0,0.0,0.0
220,2023-11-28 17:29:21.314656,1701188961.314656,111.72677005051052,116.38523864746097,59.58761069360562,59.643016815185554,111.1538122553797,114.18937683105467,65.89014644004466,63.61669540405274,1701188961.313597,0.0,0.0,0.0
221,2023-11-28 17:29:21.336217,1701188961.336217,111.72677005051052,116.38523864746097,59.58761069360562,59.643016815185554,111.1538122553797,114.18937683105467,65.89014644004466,63.61669540405274,1701188961.334583,0.0,0.0,0.0
222,2023-11-28 17:29:21.368700,1701188961.3687,111.72677005051052,116.38523864746097,59.58761069360562,59.643016815185554,111.1538122553797,114.18937683105467,65.89014644004466,63.61669540405274,1701188961.373545,0.0,0.0,0.0
223,2023-11-28 17:29:21.390231,1701188961.390231,111.72677005051052,116.38523864746097,59.58761069360562,59.643016815185554,111.1538122553797,114.18937683105467,65.89014644004466,63.61669540405274,1701188961.393536,0.0,0.0,0.0
224,2023-11-28 17:29:21.422591,1701188961.422591,111.72677005051052,116.38523864746097,59.58761069360562,59.643016815185554,111.1538122553797,114.18937683105467,65.89014644004466,63.61669540405274,1701188961.423555,0.0,0.0,0.0
225,2023-11-28 17:29:21.444252,1701188961.444252,111.72677005051052,116.38523864746097,59.58761069360562,59.643016815185554,111.1538122553797,114.18937683105467,65.89014644004466,63.61669540405274,1701188961.443576,0.0,0.0,0.0
226,2023-11-28 17:29:21.476587,1701188961.476587,111.72677005051052,116.38523864746097,59.58761069360562,59.643016815185554,111.1538122553797,114.18937683105467,65.89014644004466,63.61669540405274,1701188961.475153,0.0,0.0,0.0
227,2023-11-28 17:29:21.498231,1701188961.498231,111.72677005051052,116.38523864746097,59.58761069360562,59.643016815185554,111.1538122553797,114.18937683105467,65.89014644004466,63.61669540405274,1701188961.496013,0.0,0.0,0.0
228,2023-11-28 17:29:21.530551,1701188961.530551,111.72677005051052,116.38523864746097,59.58761069360562,59.643016815185554,111.1538122553797,114.18937683105467,65.89014644004466,63.61669540405274,1701188961.528894,0.0,0.0,0.0
229,2023-11-28 17:29:21.552300,1701188961.5523,111.72677005051052,116.38523864746097,59.58761069360562,59.643016815185554,111.1538122553797,114.18937683105467,65.89014644004466,63.61669540405274,1701188961.549484,0.0,0.0,0.0
230,2023-11-28 17:29:21.584705,1701188961.584705,112.29972784564136,116.38523864746097,59.58761069360562,59.643016815185554,111.1538122553797,114.18937683105467,65.89014644004466,63.61669540405274,1701188961.582739,0.0,0.0,0.0
231,2023-11-28 17:29:21.606234,1701188961.606234,112.29972784564136,116.38523864746097,59.58761069360562,59.643016815185554,111.1538122553797,114.18937683105467,65.89014644004466,63.61669540405274,1701188961.601702,0.0,0.0,0.0
232,2023-11-28 17:29:21.638569,1701188961.638569,112.29972784564136,116.38523864746097,59.58761069360562,59.643016815185554,111.1538122553797,114.18937683105467,65.89014644004466,63.61669540405274,1701188961.634985,0.0,0.0,0.0
233,2023-11-28 17:29:21.660245,1701188961.660245,112.29972784564136,116.38523864746097,59.58761069360562,59.643016815185554,111.1538122553797,114.18937683105467,65.89014644004466,63.61669540405274,1701188961.655693,0.0,0.0,0.0
234,2023-11-28 17:29:21.692507,1701188961.692507,113.445643435903,116.38523864746097,59.58761069360562,59.643016815185554,111.1538122553797,114.18937683105467,65.89014644004466,63.61669540405274,1701188961.689153,0.0,0.0,0.0
235,2023-11-28 17:29:21.714259,1701188961.714259,113.445643435903,116.38523864746097,59.58761069360562,59.643016815185554,111.1538122553797,114.18937683105467,65.89014644004466,63.61669540405274,1701188961.711349,0.0,0.0,0.0
236,2023-11-28 17:29:21.746678,1701188961.746678,113.445643435903,116.38523864746097,59.58761069360562,59.643016815185554,111.1538122553797,114.18937683105467,65.89014644004466,63.61669540405274,1701188961.74195,0.0,0.0,0.0
237,2023-11-28 17:29:21.768320,1701188961.76832,113.445643435903,116.38523864746097,59.58761069360562,59.643016815185554,111.1538122553797,114.18937683105467,66.46310423517549,63.61669540405274,1701188961.764877,0.0,0.0,0.0
238,2023-11-28 17:29:21.800596,1701188961.800596,113.445643435903,116.38523864746097,59.58761069360562,59.643016815185554,111.1538122553797,114.18937683105467,65.89014644004466,63.61669540405274,1701188961.796861,0.0,0.0,0.0
239,2023-11-28 17:29:21.822344,1701188961.822344,113.445643435903,116.38523864746097,59.58761069360562,59.643016815185554,111.1538122553797,114.18937683105467,65.89014644004466,63.61669540405274,1701188961.819152,0.0,0.0,0.0
240,2023-11-28 17:29:21.854788,1701188961.854788,113.445643435903,116.38523864746097,59.58761069360562,59.643016815185554,111.1538122553797,114.18937683105467,65.89014644004466,63.61669540405274,1701188961.851746,0.0,0.0,0.0
241,2023-11-28 17:29:21.876312,1701188961.876312,113.445643435903,116.38523864746097,59.58761069360562,59.643016815185554,111.1538122553797,114.18937683105467,65.89014644004466,63.61669540405274,1701188961.874177,0.0,0.0,0.0
242,2023-11-28 17:29:21.908624,1701188961.908624,113.445643435903,116.38523864746097,59.58761069360562,59.643016815185554,111.1538122553797,114.18937683105467,65.89014644004466,63.61669540405274,1701188961.904251,0.0,0.0,0.0
243,2023-11-28 17:29:21.930390,1701188961.93039,113.445643435903,116.38523864746097,59.58761069360562,59.643016815185554,111.1538122553797,114.18937683105467,65.89014644004466,63.61669540405274,1701188961.934275,0.0,0.0,0.0
244,2023-11-28 17:29:21.962808,1701188961.962808,113.445643435903,116.38523864746097,59.58761069360562,59.643016815185554,111.1538122553797,114.18937683105467,66.46310423517549,63.61669540405274,1701188961.965719,0.0,0.0,0.0
245,2023-11-28 17:29:21.984322,1701188961.984322,113.445643435903,116.38523864746097,59.58761069360562,59.643016815185554,111.1538122553797,114.18937683105467,65.89014644004466,63.61669540405274,1701188961.984265,0.0,0.0,0.0
246,2023-11-28 17:29:22.016620,1701188962.01662,113.445643435903,116.38523864746097,59.58761069360562,59.643016815185554,111.1538122553797,114.18937683105467,65.89014644004466,63.61669540405274,1701188962.014258,0.0,0.0,0.0
247,2023-11-28 17:29:22.038287,1701188962.038287,113.445643435903,116.38523864746097,59.58761069360562,59.643016815185554,111.1538122553797,114.18937683105467,65.89014644004466,63.61669540405274,1701188962.034271,0.0,0.0,0.0
248,2023-11-28 17:29:22.070573,1701188962.070573,113.445643435903,116.38523864746097,59.58761069360562,59.643016815185554,111.1538122553797,114.18937683105467,65.89014644004466,63.61669540405274,1701188962.074256,0.0,0.0,0.0
249,2023-11-28 17:29:22.092364,1701188962.092364,113.445643435903,116.38523864746097,59.58761069360562,59.643016815185554,111.1538122553797,114.18937683105467,65.89014644004466,63.61669540405274,1701188962.09626,0.0,0.0,0.0
250,2023-11-28 17:29:22.124785,1701188962.124785,113.445643435903,116.38523864746097,59.58761069360562,59.643016815185554,111.1538122553797,114.18937683105467,65.89014644004466,63.61669540405274,1701188962.124261,0.0,0.0,0.0
251,2023-11-28 17:29:22.146294,1701188962.146294,113.445643435903,116.38523864746097,59.58761069360562,59.643016815185554,111.1538122553797,114.18937683105467,65.89014644004466,63.61669540405274,1701188962.144948,0.0,0.0,0.0
252,2023-11-28 17:29:22.178623,1701188962.178623,113.445643435903,116.38523864746097,59.58761069360562,59.643016815185554,111.1538122553797,114.18937683105467,65.89014644004466,63.61669540405274,1701188962.177701,0.0,0.0,0.0
253,2023-11-28 17:29:22.200294,1701188962.200294,113.445643435903,116.38523864746097,59.58761069360562,59.643016815185554,111.1538122553797,114.18937683105467,65.89014644004466,63.61669540405274,1701188962.200192,0.0,0.0,0.0
254,2023-11-28 17:29:22.232768,1701188962.232768,113.445643435903,116.38523864746097,59.58761069360562,59.643016815185554,111.1538122553797,114.18937683105467,65.89014644004466,63.61669540405274,1701188962.232388,0.0,0.0,0.0
255,2023-11-28 17:29:22.254296,1701188962.254296,113.445643435903,116.38523864746097,59.58761069360562,59.643016815185554,111.1538122553797,114.18937683105467,65.89014644004466,63.61669540405274,1701188962.25029,0.0,0.0,0.0
256,2023-11-28 17:29:22.286700,1701188962.2867,113.445643435903,116.38523864746097,59.58761069360562,59.643016815185554,111.1538122553797,114.18937683105467,65.89014644004466,63.61669540405274,1701188962.284362,0.0,0.0,0.0
257,2023-11-28 17:29:22.308272,1701188962.308272,113.445643435903,116.38523864746097,59.58761069360562,59.643016815185554,111.1538122553797,114.18937683105467,65.89014644004466,63.61669540405274,1701188962.304918,0.0,0.0,0.0
258,2023-11-28 17:29:22.340594,1701188962.340594,113.445643435903,116.38523864746097,59.58761069360562,59.643016815185554,111.1538122553797,114.18937683105467,65.89014644004466,63.61669540405274,1701188962.337181,0.0,0.0,0.0
259,2023-11-28 17:29:22.362267,1701188962.362267,113.445643435903,116.38523864746097,59.58761069360562,59.643016815185554,111.1538122553797,114.18937683105467,65.89014644004466,63.61669540405274,1701188962.360259,0.0,0.0,0.0
260,2023-11-28 17:29:22.394553,1701188962.394553,113.445643435903,116.38523864746097,59.58761069360562,59.643016815185554,111.1538122553797,114.18937683105467,65.89014644004466,63.61669540405274,1701188962.393757,0.0,0.0,0.0
261,2023-11-28 17:29:22.416245,1701188962.416245,113.445643435903,116.38523864746097,59.58761069360562,59.643016815185554,111.1538122553797,114.18937683105467,65.89014644004466,63.61669540405274,1701188962.415456,0.0,0.0,0.0
262,2023-11-28 17:29:22.448525,1701188962.448525,113.445643435903,116.38523864746097,59.58761069360562,59.643016815185554,111.1538122553797,114.18937683105467,65.89014644004466,63.61669540405274,1701188962.44821,0.0,0.0,0.0
263,2023-11-28 17:29:22.470248,1701188962.470248,113.445643435903,116.38523864746097,59.58761069360562,59.643016815185554,111.1538122553797,114.18937683105467,66.46310423517549,63.61669540405274,1701188962.468108,0.0,0.0,0.0
264,2023-11-28 17:29:22.502705,1701188962.502705,113.445643435903,116.38523864746097,59.58761069360562,59.643016815185554,111.1538122553797,114.18937683105467,65.89014644004466,63.61669540405274,1701188962.501094,0.0,0.0,0.0
265,2023-11-28 17:29:22.524243,1701188962.524243,113.445643435903,116.38523864746097,59.58761069360562,59.643016815185554,111.1538122553797,114.18937683105467,65.89014644004466,63.61669540405274,1701188962.523084,0.0,0.0,0.0
266,2023-11-28 17:29:22.556655,1701188962.556655,113.445643435903,116.38523864746097,59.58761069360562,59.643016815185554,111.1538122553797,114.18937683105467,65.89014644004466,63.61669540405274,1701188962.555361,0.0,0.0,0.0
267,2023-11-28 17:29:22.578291,1701188962.578291,113.445643435903,116.38523864746097,59.58761069360562,59.643016815185554,111.1538122553797,114.18937683105467,65.89014644004466,63.61669540405274,1701188962.572751,0.0,0.0,0.0
268,2023-11-28 17:29:22.610677,1701188962.610677,113.445643435903,116.38523864746097,59.58761069360562,59.643016815185554,111.1538122553797,114.18937683105467,65.89014644004466,63.61669540405274,1701188962.615843,0.0,0.0,0.0
269,2023-11-28 17:29:22.632293,1701188962.632293,113.445643435903,116.38523864746097,59.58761069360562,59.643016815185554,111.1538122553797,114.18937683105467,65.89014644004466,63.61669540405274,1701188962.636974,0.0,0.0,0.0
270,2023-11-28 17:29:22.664769,1701188962.664769,113.445643435903,116.38523864746097,59.58761069360562,59.643016815185554,111.1538122553797,114.18937683105467,65.89014644004466,63.61669540405274,1701188962.664901,0.0,0.0,0.0
271,2023-11-28 17:29:22.686338,1701188962.686338,113.445643435903,116.38523864746097,59.58761069360562,59.643016815185554,111.1538122553797,114.18937683105467,65.89014644004466,63.61669540405274,1701188962.686113,0.0,0.0,0.0
272,2023-11-28 17:29:22.718693,1701188962.718693,113.445643435903,116.38523864746097,59.58761069360562,59.643016815185554,111.1538122553797,114.18937683105467,65.89014644004466,63.61669540405274,1701188962.717285,0.0,0.0,0.0
273,2023-11-28 17:29:22.740296,1701188962.740296,113.445643435903,116.38523864746097,59.58761069360562,59.643016815185554,111.1538122553797,114.18937683105467,65.89014644004466,63.61669540405274,1701188962.7381,0.0,0.0,0.0
274,2023-11-28 17:29:22.772700,1701188962.7727,113.445643435903,116.38523864746097,59.58761069360562,59.643016815185554,111.1538122553797,114.18937683105467,65.89014644004466,63.61669540405274,1701188962.769996,0.0,0.0,0.0
275,2023-11-28 17:29:22.794265,1701188962.794265,113.445643435903,116.38523864746097,59.58761069360562,59.643016815185554,111.1538122553797,114.18937683105467,65.89014644004466,63.61669540405274,1701188962.793111,0.0,0.0,0.0
276,2023-11-28 17:29:22.826685,1701188962.826685,113.445643435903,116.38523864746097,59.58761069360562,59.643016815185554,111.1538122553797,114.18937683105467,65.89014644004466,63.61669540405274,1701188962.828817,0.0,0.0,0.0
277,2023-11-28 17:29:22.848266,1701188962.848266,113.445643435903,116.38523864746097,59.58761069360562,59.643016815185554,111.1538122553797,114.18937683105467,65.89014644004466,63.61669540405274,1701188962.845141,0.0,0.0,0.0
278,2023-11-28 17:29:22.880555,1701188962.880555,113.445643435903,116.38523864746097,59.58761069360562,59.643016815185554,111.1538122553797,114.18937683105467,65.89014644004466,63.61669540405274,1701188962.878554,0.0,0.0,0.0
279,2023-11-28 17:29:22.902287,1701188962.902287,113.445643435903,116.38523864746097,59.58761069360562,59.643016815185554,111.1538122553797,114.18937683105467,65.89014644004466,63.61669540405274,1701188962.904689,0.0,0.0,0.0
280,2023-11-28 17:29:22.934672,1701188962.934672,113.445643435903,116.38523864746097,59.58761069360562,59.643016815185554,111.1538122553797,114.18937683105467,65.89014644004466,63.61669540405274,1701188962.934761,0.0,0.0,0.0
281,2023-11-28 17:29:22.956274,1701188962.956274,113.445643435903,116.38523864746097,59.58761069360562,59.643016815185554,111.1538122553797,114.18937683105467,65.89014644004466,63.61669540405274,1701188962.954743,0.0,0.0,0.0
282,2023-11-28 17:29:22.988664,1701188962.988664,113.445643435903,116.38523864746097,59.58761069360562,59.643016815185554,111.1538122553797,114.18937683105467,65.89014644004466,63.61669540405274,1701188962.984746,0.0,0.0,0.0
283,2023-11-28 17:29:23.010292,1701188963.010292,113.445643435903,116.38523864746097,59.58761069360562,59.643016815185554,111.1538122553797,114.18937683105467,65.89014644004466,63.61669540405274,1701188963.004695,0.0,0.0,0.0
284,2023-11-28 17:29:23.042703,1701188963.042703,113.445643435903,116.38523864746097,59.58761069360562,59.643016815185554,111.1538122553797,114.18937683105467,65.89014644004466,63.61669540405274,1701188963.047745,0.0,0.0,0.0
285,2023-11-28 17:29:23.064255,1701188963.064255,113.445643435903,116.38523864746097,59.58761069360562,59.643016815185554,111.1538122553797,114.18937683105467,66.46310423517549,63.61669540405274,1701188963.059181,0.0,0.0,0.0
286,2023-11-28 17:29:23.096573,1701188963.096573,113.445643435903,116.38523864746097,59.58761069360562,59.643016815185554,111.1538122553797,114.18937683105467,65.89014644004466,63.61669540405274,1701188963.091491,0.0,0.0,0.0
287,2023-11-28 17:29:23.118295,1701188963.118295,113.445643435903,116.38523864746097,59.58761069360562,59.643016815185554,111.1538122553797,114.18937683105467,65.89014644004466,63.61669540405274,1701188963.112759,0.0,0.0,0.0
288,2023-11-28 17:29:23.150601,1701188963.150601,113.445643435903,116.38523864746097,59.58761069360562,59.643016815185554,111.1538122553797,114.18937683105467,65.89014644004466,63.61669540405274,1701188963.145534,0.0,0.0,0.0
289,2023-11-28 17:29:23.172319,1701188963.172319,113.445643435903,116.38523864746097,59.58761069360562,59.643016815185554,111.1538122553797,114.18937683105467,65.89014644004466,63.61669540405274,1701188963.167711,0.0,0.0,0.0
290,2023-11-28 17:29:23.204607,1701188963.204607,113.445643435903,116.38523864746097,59.58761069360562,59.643016815185554,111.1538122553797,114.18937683105467,65.89014644004466,63.61669540405274,1701188963.206072,0.0,0.0,0.0
291,2023-11-28 17:29:23.226275,1701188963.226275,113.445643435903,116.38523864746097,59.58761069360562,59.643016815185554,111.1538122553797,114.18937683105467,65.89014644004466,63.61669540405274,1701188963.224889,0.0,0.0,0.0
292,2023-11-28 17:29:23.258640,1701188963.25864,113.445643435903,116.38523864746097,59.58761069360562,59.643016815185554,111.1538122553797,114.18937683105467,65.89014644004466,63.61669540405274,1701188963.256853,0.0,0.0,0.0
293,2023-11-28 17:29:23.280311,1701188963.280311,113.445643435903,116.38523864746097,59.58761069360562,59.643016815185554,111.1538122553797,114.18937683105467,65.89014644004466,63.61669540405274,1701188963.28474,0.0,0.0,0.0
294,2023-11-28 17:29:23.312553,1701188963.312553,113.445643435903,116.38523864746097,59.58761069360562,59.643016815185554,111.1538122553797,114.18937683105467,65.89014644004466,63.61669540405274,1701188963.314696,0.0,0.0,0.0
295,2023-11-28 17:29:23.334285,1701188963.334285,113.445643435903,116.38523864746097,59.58761069360562,59.643016815185554,111.1538122553797,114.18937683105467,65.89014644004466,63.61669540405274,1701188963.334701,0.0,0.0,0.0
296,2023-11-28 17:29:23.366695,1701188963.366695,113.445643435903,116.38523864746097,59.58761069360562,59.643016815185554,111.1538122553797,114.18937683105467,65.89014644004466,63.61669540405274,1701188963.36471,0.0,0.0,0.0
297,2023-11-28 17:29:23.388293,1701188963.388293,113.445643435903,116.38523864746097,59.58761069360562,59.643016815185554,111.1538122553797,114.18937683105467,65.89014644004466,63.61669540405274,1701188963.384746,0.0,0.0,0.0
298,2023-11-28 17:29:23.420612,1701188963.420612,113.445643435903,116.38523864746097,59.58761069360562,59.643016815185554,111.1538122553797,114.18937683105467,65.89014644004466,63.61669540405274,1701188963.424703,0.0,0.0,0.0
299,2023-11-28 17:29:23.442320,1701188963.44232,113.445643435903,116.38523864746097,59.58761069360562,59.643016815185554,111.1538122553797,114.18937683105467,65.89014644004466,63.61669540405274,1701188963.446053,0.0,0.0,0.0
300,2023-11-28 17:29:23.474587,1701188963.474587,113.445643435903,116.38523864746097,59.58761069360562,59.643016815185554,111.1538122553797,114.18937683105467,65.89014644004466,63.61669540405274,1701188963.477132,0.0,0.0,0.0
301,2023-11-28 17:29:23.496312,1701188963.496312,113.445643435903,116.38523864746097,59.58761069360562,59.643016815185554,111.1538122553797,114.18937683105467,65.89014644004466,63.61669540405274,1701188963.496574,0.0,0.0,0.0
302,2023-11-28 17:29:23.528705,1701188963.528705,113.445643435903,116.38523864746097,59.58761069360562,59.643016815185554,111.1538122553797,114.18937683105467,65.89014644004466,63.61669540405274,1701188963.524744,0.0,0.0,0.0
303,2023-11-28 17:29:23.550298,1701188963.550298,113.445643435903,116.38523864746097,59.58761069360562,59.643016815185554,111.1538122553797,114.18937683105467,65.89014644004466,63.61669540405274,1701188963.554775,0.0,0.0,0.0
304,2023-11-28 17:29:23.582573,1701188963.582573,113.445643435903,116.38523864746097,59.58761069360562,59.643016815185554,111.1538122553797,114.18937683105467,65.89014644004466,63.61669540405274,1701188963.584707,0.0,0.0,0.0
305,2023-11-28 17:29:23.604309,1701188963.604309,113.445643435903,116.38523864746097,59.58761069360562,59.643016815185554,111.1538122553797,114.18937683105467,65.89014644004466,63.61669540405274,1701188963.604694,0.0,0.0,0.0
306,2023-11-28 17:29:23.636678,1701188963.636678,113.445643435903,116.38523864746097,59.58761069360562,59.643016815185554,111.1538122553797,114.18937683105467,65.89014644004466,63.61669540405274,1701188963.634735,0.0,0.0,0.0
307,2023-11-28 17:29:23.658319,1701188963.658319,113.445643435903,116.38523864746097,59.58761069360562,59.643016815185554,111.1538122553797,114.18937683105467,65.89014644004466,63.61669540405274,1701188963.65474,0.0,0.0,0.0
308,2023-11-28 17:29:23.690590,1701188963.69059,113.445643435903,116.38523864746097,59.58761069360562,59.643016815185554,111.1538122553797,114.18937683105467,65.89014644004466,63.61669540405274,1701188963.694728,0.0,0.0,0.0
