index,datetime,timestamp,joint_angle_1,joint_angle_1_des,joint_angle_2,joint_angle_2_des,joint_angle_3,joint_angle_3_des,joint_angle_4,joint_angle_4_des,timestamp_desired,roll_desired,pitch_desired,yaw_desired
0,2023-11-28 16:58:12.906538,1701187092.906538,114.01860123103384,0.0,59.01465289847479,0.0,101.98648753328654,0.0,69.90085100596043,0.0,1701187096.294265,0.0,0.0,0.0
1,2023-11-28 16:58:12.928474,1701187092.928474,114.01860123103384,0.0,59.01465289847479,0.0,101.98648753328654,0.0,69.90085100596043,0.0,1701187096.294265,0.0,0.0,0.0
2,2023-11-28 16:58:12.958526,1701187092.958526,114.01860123103384,0.0,59.01465289847479,0.0,101.98648753328654,0.0,69.90085100596043,0.0,1701187096.294265,0.0,0.0,0.0
3,2023-11-28 16:58:12.979227,1701187092.979227,114.01860123103384,0.0,59.01465289847479,0.0,101.98648753328654,0.0,69.90085100596043,0.0,1701187096.294265,0.0,0.0,0.0
4,2023-11-28 16:58:13.009586,1701187093.009586,114.01860123103384,0.0,59.01465289847479,0.0,101.98648753328654,0.0,69.90085100596043,0.0,1701187096.294265,0.0,0.0,0.0
5,2023-11-28 16:58:13.031170,1701187093.03117,114.01860123103384,0.0,59.01465289847479,0.0,101.98648753328654,0.0,69.90085100596043,0.0,1701187096.294265,0.0,0.0,0.0
6,2023-11-28 16:58:13.061597,1701187093.061597,114.01860123103384,0.0,59.01465289847479,0.0,101.98648753328654,0.0,69.90085100596043,0.0,1701187096.294265,0.0,0.0,0.0
7,2023-11-28 16:58:13.083283,1701187093.083283,114.01860123103384,0.0,59.01465289847479,0.0,101.98648753328654,0.0,69.90085100596043,0.0,1701187096.294265,0.0,0.0,0.0
8,2023-11-28 16:58:13.113751,1701187093.113751,114.01860123103384,0.0,59.01465289847479,0.0,101.98648753328654,0.0,69.90085100596043,0.0,1701187096.294265,0.0,0.0,0.0
9,2023-11-28 16:58:13.135376,1701187093.135376,114.01860123103384,0.0,59.01465289847479,0.0,101.98648753328654,0.0,69.90085100596043,0.0,1701187096.294265,0.0,0.0,0.0
10,2023-11-28 16:58:13.165541,1701187093.165541,114.01860123103384,0.0,59.01465289847479,0.0,101.98648753328654,0.0,69.90085100596043,0.0,1701187096.294265,0.0,0.0,0.0
11,2023-11-28 16:58:13.187243,1701187093.187243,114.01860123103384,0.0,59.01465289847479,0.0,101.98648753328654,0.0,69.90085100596043,0.0,1701187096.294265,0.0,0.0,0.0
12,2023-11-28 16:58:13.217636,1701187093.217636,114.01860123103384,0.0,59.01465289847479,0.0,101.98648753328654,0.0,69.90085100596043,0.0,1701187096.294265,0.0,0.0,0.0
13,2023-11-28 16:58:13.239298,1701187093.239298,114.01860123103384,0.0,59.01465289847479,0.0,101.98648753328654,0.0,69.90085100596043,0.0,1701187096.294265,0.0,0.0,0.0
14,2023-11-28 16:58:13.269680,1701187093.26968,114.01860123103384,0.0,59.01465289847479,0.0,101.98648753328654,0.0,69.90085100596043,0.0,1701187096.294265,0.0,0.0,0.0
15,2023-11-28 16:58:13.291209,1701187093.291209,114.01860123103384,0.0,59.01465289847479,0.0,101.98648753328654,0.0,69.90085100596043,0.0,1701187096.294265,0.0,0.0,0.0
16,2023-11-28 16:58:13.321524,1701187093.321524,114.01860123103384,0.0,59.01465289847479,0.0,101.98648753328654,0.0,69.90085100596043,0.0,1701187096.294265,0.0,0.0,0.0
17,2023-11-28 16:58:13.342711,1701187093.342711,114.01860123103384,0.0,59.01465289847479,0.0,101.98648753328654,0.0,69.90085100596043,0.0,1701187096.294265,0.0,0.0,0.0
18,2023-11-28 16:58:13.372652,1701187093.372652,114.01860123103384,0.0,59.01465289847479,0.0,101.98648753328654,0.0,69.90085100596043,0.0,1701187096.294265,0.0,0.0,0.0
19,2023-11-28 16:58:13.394356,1701187093.394356,114.01860123103384,0.0,59.01465289847479,0.0,101.98648753328654,0.0,69.90085100596043,0.0,1701187096.294265,0.0,0.0,0.0
20,2023-11-28 16:58:13.424440,1701187093.42444,114.01860123103384,0.0,59.01465289847479,0.0,101.98648753328654,0.0,69.90085100596043,0.0,1701187096.294265,0.0,0.0,0.0
21,2023-11-28 16:58:13.445357,1701187093.445357,114.01860123103384,0.0,59.01465289847479,0.0,101.98648753328654,0.0,69.90085100596043,0.0,1701187096.294265,0.0,0.0,0.0
22,2023-11-28 16:58:13.475609,1701187093.475609,114.01860123103384,0.0,59.01465289847479,0.0,101.98648753328654,0.0,69.90085100596043,0.0,1701187096.294265,0.0,0.0,0.0
23,2023-11-28 16:58:13.497613,1701187093.497613,114.01860123103384,0.0,59.01465289847479,0.0,101.98648753328654,0.0,69.90085100596043,0.0,1701187096.294265,0.0,0.0,0.0
24,2023-11-28 16:58:13.527564,1701187093.527564,114.01860123103384,0.0,59.01465289847479,0.0,101.98648753328654,0.0,69.90085100596043,0.0,1701187096.294265,0.0,0.0,0.0
25,2023-11-28 16:58:13.549280,1701187093.54928,114.01860123103384,0.0,59.01465289847479,0.0,101.98648753328654,0.0,69.90085100596043,0.0,1701187096.294265,0.0,0.0,0.0
26,2023-11-28 16:58:13.579551,1701187093.579551,114.01860123103384,0.0,59.01465289847479,0.0,101.98648753328654,0.0,69.90085100596043,0.0,1701187096.294265,0.0,0.0,0.0
27,2023-11-28 16:58:13.601787,1701187093.601787,114.01860123103384,0.0,59.01465289847479,0.0,101.98648753328654,0.0,69.90085100596043,0.0,1701187096.294265,0.0,0.0,0.0
28,2023-11-28 16:58:13.631523,1701187093.631523,114.01860123103384,0.0,59.01465289847479,0.0,101.98648753328654,0.0,69.90085100596043,0.0,1701187096.294265,0.0,0.0,0.0
29,2023-11-28 16:58:13.652955,1701187093.652955,114.01860123103384,0.0,59.01465289847479,0.0,101.98648753328654,0.0,69.90085100596043,0.0,1701187096.294265,0.0,0.0,0.0
30,2023-11-28 16:58:13.682590,1701187093.68259,114.01860123103384,0.0,59.01465289847479,0.0,101.98648753328654,0.0,69.90085100596043,0.0,1701187096.294265,0.0,0.0,0.0
31,2023-11-28 16:58:13.704421,1701187093.704421,114.01860123103384,0.0,59.01465289847479,0.0,101.98648753328654,0.0,69.90085100596043,0.0,1701187096.294265,0.0,0.0,0.0
32,2023-11-28 16:58:13.734780,1701187093.73478,114.01860123103384,0.0,59.01465289847479,0.0,101.98648753328654,0.0,69.90085100596043,0.0,1701187096.294265,0.0,0.0,0.0
33,2023-11-28 16:58:13.756329,1701187093.756329,114.01860123103384,0.0,59.01465289847479,0.0,101.98648753328654,0.0,69.90085100596043,0.0,1701187096.294265,0.0,0.0,0.0
34,2023-11-28 16:58:13.786594,1701187093.786594,114.01860123103384,0.0,59.01465289847479,0.0,101.98648753328654,0.0,69.90085100596043,0.0,1701187096.294265,0.0,0.0,0.0
35,2023-11-28 16:58:13.809042,1701187093.809042,114.01860123103384,0.0,59.01465289847479,0.0,101.98648753328654,0.0,69.90085100596043,0.0,1701187096.294265,0.0,0.0,0.0
36,2023-11-28 16:58:13.838791,1701187093.838791,114.01860123103384,0.0,59.01465289847479,0.0,101.98648753328654,0.0,69.90085100596043,0.0,1701187096.294265,0.0,0.0,0.0
37,2023-11-28 16:58:13.860438,1701187093.860438,114.01860123103384,0.0,59.01465289847479,0.0,101.98648753328654,0.0,69.90085100596043,0.0,1701187096.294265,0.0,0.0,0.0
38,2023-11-28 16:58:13.890653,1701187093.890653,114.01860123103384,0.0,59.01465289847479,0.0,101.98648753328654,0.0,69.90085100596043,0.0,1701187096.294265,0.0,0.0,0.0
39,2023-11-28 16:58:13.912803,1701187093.912803,114.01860123103384,0.0,59.01465289847479,0.0,101.98648753328654,0.0,69.90085100596043,0.0,1701187096.294265,0.0,0.0,0.0
40,2023-11-28 16:58:13.942610,1701187093.94261,114.01860123103384,0.0,59.01465289847479,0.0,101.98648753328654,0.0,69.90085100596043,0.0,1701187096.294265,0.0,0.0,0.0
41,2023-11-28 16:58:13.963612,1701187093.963612,114.01860123103384,0.0,59.01465289847479,0.0,101.98648753328654,0.0,69.90085100596043,0.0,1701187096.294265,0.0,0.0,0.0
42,2023-11-28 16:58:13.994419,1701187093.994419,114.01860123103384,0.0,59.01465289847479,0.0,101.98648753328654,0.0,69.90085100596043,0.0,1701187096.294265,0.0,0.0,0.0
43,2023-11-28 16:58:14.015344,1701187094.015344,114.01860123103384,0.0,59.01465289847479,0.0,101.98648753328654,0.0,69.90085100596043,0.0,1701187096.294265,0.0,0.0,0.0
44,2023-11-28 16:58:14.046166,1701187094.046166,114.01860123103384,0.0,59.01465289847479,0.0,101.98648753328654,0.0,69.90085100596043,0.0,1701187096.294265,0.0,0.0,0.0
45,2023-11-28 16:58:14.067049,1701187094.067049,114.01860123103384,0.0,59.01465289847479,0.0,101.98648753328654,0.0,69.90085100596043,0.0,1701187096.294265,0.0,0.0,0.0
46,2023-11-28 16:58:14.097067,1701187094.097067,114.01860123103384,0.0,59.01465289847479,0.0,101.98648753328654,0.0,69.90085100596043,0.0,1701187096.294265,0.0,0.0,0.0
47,2023-11-28 16:58:14.119172,1701187094.119172,114.01860123103384,0.0,59.01465289847479,0.0,101.98648753328654,0.0,69.90085100596043,0.0,1701187096.294265,0.0,0.0,0.0
48,2023-11-28 16:58:14.149132,1701187094.149132,114.01860123103384,0.0,59.01465289847479,0.0,101.98648753328654,0.0,69.90085100596043,0.0,1701187096.294265,0.0,0.0,0.0
49,2023-11-28 16:58:14.170382,1701187094.170382,114.01860123103384,0.0,59.01465289847479,0.0,101.98648753328654,0.0,69.90085100596043,0.0,1701187096.294265,0.0,0.0,0.0
50,2023-11-28 16:58:14.200802,1701187094.200802,114.01860123103384,0.0,59.01465289847479,0.0,101.98648753328654,0.0,69.90085100596043,0.0,1701187096.294265,0.0,0.0,0.0
51,2023-11-28 16:58:14.222367,1701187094.222367,114.01860123103384,0.0,59.01465289847479,0.0,101.98648753328654,0.0,69.90085100596043,0.0,1701187096.294265,0.0,0.0,0.0
52,2023-11-28 16:58:14.252665,1701187094.252665,114.01860123103384,0.0,59.01465289847479,0.0,101.98648753328654,0.0,69.90085100596043,0.0,1701187096.294265,0.0,0.0,0.0
53,2023-11-28 16:58:14.274345,1701187094.274345,114.01860123103384,0.0,59.01465289847479,0.0,101.98648753328654,0.0,69.90085100596043,0.0,1701187096.294265,0.0,0.0,0.0
54,2023-11-28 16:58:14.304589,1701187094.304589,114.01860123103384,0.0,59.01465289847479,0.0,101.98648753328654,0.0,69.90085100596043,0.0,1701187096.294265,0.0,0.0,0.0
55,2023-11-28 16:58:14.326532,1701187094.326532,114.01860123103384,0.0,59.01465289847479,0.0,101.98648753328654,0.0,69.90085100596043,0.0,1701187096.294265,0.0,0.0,0.0
56,2023-11-28 16:58:14.356616,1701187094.356616,114.01860123103384,0.0,59.01465289847479,0.0,101.98648753328654,0.0,69.90085100596043,0.0,1701187096.294265,0.0,0.0,0.0
57,2023-11-28 16:58:14.377451,1701187094.377451,114.01860123103384,0.0,59.01465289847479,0.0,101.98648753328654,0.0,69.90085100596043,0.0,1701187096.294265,0.0,0.0,0.0
58,2023-11-28 16:58:14.407549,1701187094.407549,114.01860123103384,0.0,59.01465289847479,0.0,101.98648753328654,0.0,69.90085100596043,0.0,1701187096.294265,0.0,0.0,0.0
59,2023-11-28 16:58:14.428599,1701187094.428599,114.01860123103384,0.0,59.01465289847479,0.0,101.98648753328654,0.0,69.90085100596043,0.0,1701187096.294265,0.0,0.0,0.0
60,2023-11-28 16:58:14.458987,1701187094.458987,114.01860123103384,0.0,59.01465289847479,0.0,101.98648753328654,0.0,69.90085100596043,0.0,1701187096.294265,0.0,0.0,0.0
61,2023-11-28 16:58:14.480765,1701187094.480765,114.01860123103384,0.0,59.01465289847479,0.0,101.98648753328654,0.0,69.90085100596043,0.0,1701187096.294265,0.0,0.0,0.0
62,2023-11-28 16:58:14.510637,1701187094.510637,114.01860123103384,0.0,59.01465289847479,0.0,101.98648753328654,0.0,69.90085100596043,0.0,1701187096.294265,0.0,0.0,0.0
63,2023-11-28 16:58:14.532319,1701187094.532319,114.01860123103384,0.0,59.01465289847479,0.0,101.98648753328654,0.0,69.90085100596043,0.0,1701187096.294265,0.0,0.0,0.0
64,2023-11-28 16:58:14.562591,1701187094.562591,114.01860123103384,0.0,59.01465289847479,0.0,101.98648753328654,0.0,69.90085100596043,0.0,1701187096.294265,0.0,0.0,0.0
65,2023-11-28 16:58:14.584771,1701187094.584771,114.01860123103384,0.0,59.01465289847479,0.0,101.98648753328654,0.0,69.90085100596043,0.0,1701187096.294265,0.0,0.0,0.0
66,2023-11-28 16:58:14.615096,1701187094.615096,114.01860123103384,0.0,59.01465289847479,0.0,101.98648753328654,0.0,69.90085100596043,0.0,1701187096.294265,0.0,0.0,0.0
67,2023-11-28 16:58:14.636435,1701187094.636435,114.01860123103384,0.0,59.01465289847479,0.0,101.98648753328654,0.0,69.90085100596043,0.0,1701187096.294265,0.0,0.0,0.0
68,2023-11-28 16:58:14.666651,1701187094.666651,114.01860123103384,0.0,59.01465289847479,0.0,101.98648753328654,0.0,69.90085100596043,0.0,1701187096.294265,0.0,0.0,0.0
69,2023-11-28 16:58:14.687978,1701187094.687978,114.01860123103384,0.0,59.01465289847479,0.0,101.98648753328654,0.0,69.90085100596043,0.0,1701187096.294265,0.0,0.0,0.0
70,2023-11-28 16:58:14.718171,1701187094.718171,114.01860123103384,0.0,59.01465289847479,0.0,101.98648753328654,0.0,69.90085100596043,0.0,1701187096.294265,0.0,0.0,0.0
71,2023-11-28 16:58:14.739913,1701187094.739913,114.01860123103384,0.0,59.01465289847479,0.0,101.98648753328654,0.0,69.90085100596043,0.0,1701187096.294265,0.0,0.0,0.0
72,2023-11-28 16:58:14.770124,1701187094.770124,114.01860123103384,0.0,59.01465289847479,0.0,101.98648753328654,0.0,69.90085100596043,0.0,1701187096.294265,0.0,0.0,0.0
73,2023-11-28 16:58:14.791133,1701187094.791133,114.01860123103384,0.0,59.01465289847479,0.0,101.98648753328654,0.0,69.90085100596043,0.0,1701187096.294265,0.0,0.0,0.0
74,2023-11-28 16:58:14.821333,1701187094.821333,114.01860123103384,0.0,59.01465289847479,0.0,101.98648753328654,0.0,69.90085100596043,0.0,1701187096.294265,0.0,0.0,0.0
75,2023-11-28 16:58:14.843108,1701187094.843108,114.01860123103384,0.0,59.01465289847479,0.0,101.98648753328654,0.0,69.90085100596043,0.0,1701187096.294265,0.0,0.0,0.0
76,2023-11-28 16:58:14.874135,1701187094.874135,114.01860123103384,0.0,59.01465289847479,0.0,101.98648753328654,0.0,69.90085100596043,0.0,1701187096.294265,0.0,0.0,0.0
77,2023-11-28 16:58:14.895389,1701187094.895389,114.01860123103384,0.0,59.01465289847479,0.0,101.98648753328654,0.0,69.90085100596043,0.0,1701187096.294265,0.0,0.0,0.0
78,2023-11-28 16:58:14.925991,1701187094.925991,114.01860123103384,0.0,59.01465289847479,0.0,101.98648753328654,0.0,69.90085100596043,0.0,1701187096.294265,0.0,0.0,0.0
79,2023-11-28 16:58:14.946291,1701187094.946291,114.01860123103384,0.0,59.01465289847479,0.0,101.98648753328654,0.0,69.90085100596043,0.0,1701187096.294265,0.0,0.0,0.0
80,2023-11-28 16:58:14.976431,1701187094.976431,114.01860123103384,0.0,59.01465289847479,0.0,101.98648753328654,0.0,69.90085100596043,0.0,1701187096.294265,0.0,0.0,0.0
81,2023-11-28 16:58:14.998184,1701187094.998184,114.01860123103384,0.0,59.01465289847479,0.0,101.98648753328654,0.0,69.90085100596043,0.0,1701187096.294265,0.0,0.0,0.0
82,2023-11-28 16:58:15.028578,1701187095.028578,114.01860123103384,0.0,59.01465289847479,0.0,101.98648753328654,0.0,69.90085100596043,0.0,1701187096.294265,0.0,0.0,0.0
83,2023-11-28 16:58:15.049925,1701187095.049925,114.01860123103384,0.0,59.01465289847479,0.0,101.98648753328654,0.0,69.90085100596043,0.0,1701187096.294265,0.0,0.0,0.0
84,2023-11-28 16:58:15.080268,1701187095.080268,114.01860123103384,0.0,59.01465289847479,0.0,101.98648753328654,0.0,69.90085100596043,0.0,1701187096.294265,0.0,0.0,0.0
85,2023-11-28 16:58:15.101935,1701187095.101935,114.01860123103384,0.0,59.01465289847479,0.0,101.98648753328654,0.0,69.90085100596043,0.0,1701187096.294265,0.0,0.0,0.0
86,2023-11-28 16:58:15.132369,1701187095.132369,114.01860123103384,0.0,59.01465289847479,0.0,101.98648753328654,0.0,69.90085100596043,0.0,1701187096.294265,0.0,0.0,0.0
87,2023-11-28 16:58:15.153905,1701187095.153905,114.01860123103384,0.0,59.01465289847479,0.0,101.98648753328654,0.0,69.90085100596043,0.0,1701187096.294265,0.0,0.0,0.0
88,2023-11-28 16:58:15.184208,1701187095.184208,114.01860123103384,0.0,59.01465289847479,0.0,101.98648753328654,0.0,69.90085100596043,0.0,1701187096.294265,0.0,0.0,0.0
89,2023-11-28 16:58:15.205923,1701187095.205923,114.01860123103384,0.0,59.01465289847479,0.0,101.98648753328654,0.0,69.90085100596043,0.0,1701187096.294265,0.0,0.0,0.0
90,2023-11-28 16:58:15.236305,1701187095.236305,114.01860123103384,0.0,59.01465289847479,0.0,101.98648753328654,0.0,69.90085100596043,0.0,1701187096.294265,0.0,0.0,0.0
91,2023-11-28 16:58:15.257908,1701187095.257908,114.01860123103384,0.0,59.01465289847479,0.0,101.98648753328654,0.0,69.90085100596043,0.0,1701187096.294265,0.0,0.0,0.0
92,2023-11-28 16:58:15.288288,1701187095.288288,114.01860123103384,0.0,59.01465289847479,0.0,101.98648753328654,0.0,69.90085100596043,0.0,1701187096.294265,0.0,0.0,0.0
93,2023-11-28 16:58:15.309158,1701187095.309158,114.01860123103384,0.0,59.01465289847479,0.0,101.98648753328654,0.0,69.90085100596043,0.0,1701187096.294265,0.0,0.0,0.0
94,2023-11-28 16:58:15.339434,1701187095.339434,114.01860123103384,0.0,59.01465289847479,0.0,101.98648753328654,0.0,69.90085100596043,0.0,1701187096.294265,0.0,0.0,0.0
95,2023-11-28 16:58:15.361007,1701187095.361007,114.01860123103384,0.0,59.01465289847479,0.0,101.98648753328654,0.0,69.90085100596043,0.0,1701187096.294265,0.0,0.0,0.0
96,2023-11-28 16:58:15.391253,1701187095.391253,114.01860123103384,0.0,59.01465289847479,0.0,101.98648753328654,0.0,69.90085100596043,0.0,1701187096.294265,0.0,0.0,0.0
97,2023-11-28 16:58:15.413003,1701187095.413003,114.01860123103384,0.0,59.01465289847479,0.0,101.98648753328654,0.0,69.90085100596043,0.0,1701187096.294265,0.0,0.0,0.0
98,2023-11-28 16:58:15.443265,1701187095.443265,114.01860123103384,0.0,59.01465289847479,0.0,101.98648753328654,0.0,69.90085100596043,0.0,1701187096.294265,0.0,0.0,0.0
99,2023-11-28 16:58:15.465028,1701187095.465028,114.01860123103384,0.0,59.01465289847479,0.0,101.98648753328654,0.0,69.90085100596043,0.0,1701187096.294265,0.0,0.0,0.0
100,2023-11-28 16:58:15.495319,1701187095.495319,114.01860123103384,0.0,59.01465289847479,0.0,101.98648753328654,0.0,69.90085100596043,0.0,1701187096.294265,0.0,0.0,0.0
101,2023-11-28 16:58:15.517000,1701187095.517,114.01860123103384,0.0,59.01465289847479,0.0,101.98648753328654,0.0,69.90085100596043,0.0,1701187096.294265,0.0,0.0,0.0
102,2023-11-28 16:58:15.547637,1701187095.547637,114.01860123103384,0.0,59.01465289847479,0.0,101.98648753328654,0.0,69.90085100596043,0.0,1701187096.294265,0.0,0.0,0.0
103,2023-11-28 16:58:15.568982,1701187095.568982,114.01860123103384,0.0,59.01465289847479,0.0,101.98648753328654,0.0,69.90085100596043,0.0,1701187096.294265,0.0,0.0,0.0
104,2023-11-28 16:58:15.599206,1701187095.599206,114.01860123103384,0.0,59.01465289847479,0.0,101.98648753328654,0.0,69.90085100596043,0.0,1701187096.294265,0.0,0.0,0.0
105,2023-11-28 16:58:15.621015,1701187095.621015,114.01860123103384,0.0,59.01465289847479,0.0,101.98648753328654,0.0,69.90085100596043,0.0,1701187096.294265,0.0,0.0,0.0
106,2023-11-28 16:58:15.651330,1701187095.65133,114.01860123103384,0.0,59.01465289847479,0.0,101.98648753328654,0.0,69.90085100596043,0.0,1701187096.294265,0.0,0.0,0.0
107,2023-11-28 16:58:15.673023,1701187095.673023,114.01860123103384,0.0,59.01465289847479,0.0,101.98648753328654,0.0,69.90085100596043,0.0,1701187096.294265,0.0,0.0,0.0
108,2023-11-28 16:58:15.703321,1701187095.703321,114.01860123103384,0.0,59.01465289847479,0.0,101.98648753328654,0.0,69.90085100596043,0.0,1701187096.294265,0.0,0.0,0.0
109,2023-11-28 16:58:15.724922,1701187095.724922,114.01860123103384,0.0,59.01465289847479,0.0,101.98648753328654,0.0,69.90085100596043,0.0,1701187096.294265,0.0,0.0,0.0
110,2023-11-28 16:58:15.755209,1701187095.755209,114.01860123103384,0.0,59.01465289847479,0.0,101.98648753328654,0.0,69.90085100596043,0.0,1701187096.294265,0.0,0.0,0.0
111,2023-11-28 16:58:15.777030,1701187095.77703,114.01860123103384,0.0,59.01465289847479,0.0,101.98648753328654,0.0,69.90085100596043,0.0,1701187096.294265,0.0,0.0,0.0
112,2023-11-28 16:58:15.807393,1701187095.807393,114.01860123103384,0.0,59.01465289847479,0.0,101.98648753328654,0.0,69.90085100596043,0.0,1701187096.294265,0.0,0.0,0.0
113,2023-11-28 16:58:15.829045,1701187095.829045,114.01860123103384,0.0,59.01465289847479,0.0,101.98648753328654,0.0,69.90085100596043,0.0,1701187096.294265,0.0,0.0,0.0
114,2023-11-28 16:58:15.859318,1701187095.859318,114.01860123103384,0.0,59.01465289847479,0.0,101.98648753328654,0.0,69.90085100596043,0.0,1701187096.294265,0.0,0.0,0.0
115,2023-11-28 16:58:15.880982,1701187095.880982,114.01860123103384,0.0,59.01465289847479,0.0,101.98648753328654,0.0,69.90085100596043,0.0,1701187096.294265,0.0,0.0,0.0
116,2023-11-28 16:58:15.911293,1701187095.911293,114.01860123103384,0.0,59.01465289847479,0.0,101.98648753328654,0.0,69.90085100596043,0.0,1701187096.294265,0.0,0.0,0.0
117,2023-11-28 16:58:15.933040,1701187095.93304,114.01860123103384,0.0,59.01465289847479,0.0,101.98648753328654,0.0,69.90085100596043,0.0,1701187096.294265,0.0,0.0,0.0
118,2023-11-28 16:58:15.963202,1701187095.963202,114.01860123103384,0.0,59.01465289847479,0.0,101.98648753328654,0.0,69.90085100596043,0.0,1701187096.294265,0.0,0.0,0.0
119,2023-11-28 16:58:15.985058,1701187095.985058,114.01860123103384,0.0,59.01465289847479,0.0,101.98648753328654,0.0,69.90085100596043,0.0,1701187096.294265,0.0,0.0,0.0
120,2023-11-28 16:58:16.015498,1701187096.015498,114.01860123103384,0.0,59.01465289847479,0.0,101.98648753328654,0.0,69.90085100596043,0.0,1701187096.294265,0.0,0.0,0.0
121,2023-11-28 16:58:16.036969,1701187096.036969,114.01860123103384,0.0,59.01465289847479,0.0,101.98648753328654,0.0,69.90085100596043,0.0,1701187096.294265,0.0,0.0,0.0
122,2023-11-28 16:58:16.067254,1701187096.067254,114.01860123103384,0.0,59.01465289847479,0.0,101.98648753328654,0.0,69.90085100596043,0.0,1701187096.294265,0.0,0.0,0.0
123,2023-11-28 16:58:16.088144,1701187096.088144,114.01860123103384,0.0,59.01465289847479,0.0,101.98648753328654,0.0,69.90085100596043,0.0,1701187096.294265,0.0,0.0,0.0
124,2023-11-28 16:58:16.118484,1701187096.118484,114.01860123103384,0.0,59.01465289847479,0.0,101.98648753328654,0.0,69.90085100596043,0.0,1701187096.294265,0.0,0.0,0.0
125,2023-11-28 16:58:16.140009,1701187096.140009,114.01860123103384,0.0,59.01465289847479,0.0,101.98648753328654,0.0,69.90085100596043,0.0,1701187096.294265,0.0,0.0,0.0
126,2023-11-28 16:58:16.170364,1701187096.170364,114.01860123103384,0.0,59.01465289847479,0.0,101.98648753328654,0.0,69.90085100596043,0.0,1701187096.294265,0.0,0.0,0.0
127,2023-11-28 16:58:16.192038,1701187096.192038,114.01860123103384,0.0,59.01465289847479,0.0,101.98648753328654,0.0,69.90085100596043,0.0,1701187096.294265,0.0,0.0,0.0
128,2023-11-28 16:58:16.222266,1701187096.222266,114.01860123103384,0.0,59.01465289847479,0.0,101.98648753328654,0.0,69.90085100596043,0.0,1701187096.294265,0.0,0.0,0.0
129,2023-11-28 16:58:16.244008,1701187096.244008,114.01860123103384,0.0,59.01465289847479,0.0,101.98648753328654,0.0,69.90085100596043,0.0,1701187096.294265,0.0,0.0,0.0
130,2023-11-28 16:58:16.274173,1701187096.274173,114.01860123103384,0.0,59.01465289847479,0.0,101.98648753328654,0.0,69.90085100596043,0.0,1701187096.294265,0.0,0.0,0.0
131,2023-11-28 16:58:16.295171,1701187096.295171,114.01860123103384,0.0,59.01465289847479,0.0,101.98648753328654,0.0,69.90085100596043,0.0,1701187096.294265,0.0,0.0,0.0
132,2023-11-28 16:58:16.325250,1701187096.32525,114.01860123103384,0.0,59.01465289847479,0.0,101.98648753328654,0.0,69.90085100596043,0.0,1701187096.324363,0.0,0.0,0.0
133,2023-11-28 16:58:16.346990,1701187096.34699,114.01860123103384,0.0,59.01465289847479,0.0,101.98648753328654,0.0,69.90085100596043,0.0,1701187096.344367,0.0,0.0,0.0
134,2023-11-28 16:58:16.377200,1701187096.3772,114.01860123103384,0.0,59.01465289847479,0.0,101.98648753328654,0.0,69.90085100596043,0.0,1701187096.374365,0.0,0.0,0.0
135,2023-11-28 16:58:16.398063,1701187096.398063,114.01860123103384,116.38523864746097,59.01465289847479,59.643016815185554,101.98648753328654,114.18937683105467,69.90085100596043,63.61669540405274,1701187096.394358,0.0,0.0,0.0
136,2023-11-28 16:58:16.429731,1701187096.429731,114.01860123103384,116.38523864746097,59.01465289847479,59.643016815185554,101.98648753328654,114.18937683105467,69.90085100596043,63.61669540405274,1701187096.434365,0.0,0.0,0.0
137,2023-11-28 16:58:16.451010,1701187096.45101,111.1538122553797,116.38523864746097,56.7228217179515,59.643016815185554,100.26761414789408,114.18937683105467,67.60901982543714,63.61669540405274,1701187096.454351,0.0,0.0,0.0
138,2023-11-28 16:58:16.483370,1701187096.48337,100.84057194302488,116.38523864746097,44.11775022507339,59.643016815185554,88.23550045014677,114.18937683105467,55.57690612768985,63.61669540405274,1701187096.485565,0.0,0.0,0.0
139,2023-11-28 16:58:16.504995,1701187096.504995,91.1002894258009,116.38523864746097,34.37746770784939,59.643016815185554,76.77634454753031,114.18937683105467,44.69070802020421,63.61669540405274,1701187096.506829,0.0,0.0,0.0
140,2023-11-28 16:58:16.537362,1701187096.537362,73.91155557187619,116.38523864746097,21.199438419840455,59.643016815185554,57.86873730821315,114.18937683105467,29.79380534680281,63.61669540405274,1701187096.537738,0.0,0.0,0.0
141,2023-11-28 16:58:16.559002,1701187096.559002,59.58761069360562,116.38523864746097,16.615776058793873,59.643016815185554,46.9825392007275,114.18937683105467,24.6371851906254,63.61669540405274,1701187096.559321,0.0,0.0,0.0
142,2023-11-28 16:58:16.591348,1701187096.591348,40.10704565915762,116.38523864746097,16.615776058793873,59.643016815185554,34.37746770784939,114.18937683105467,20.62648062470964,63.61669540405274,1701187096.586232,0.0,0.0,0.0
143,2023-11-28 16:58:16.613072,1701187096.613072,28.64788975654116,116.38523864746097,21.199438419840455,59.643016815185554,28.64788975654116,114.18937683105467,20.62648062470964,63.61669540405274,1701187096.608972,0.0,0.0,0.0
144,2023-11-28 16:58:16.645357,1701187096.645357,20.62648062470964,116.38523864746097,23.49126960036375,59.643016815185554,26.92901637114869,114.18937683105467,24.6371851906254,63.61669540405274,1701187096.641917,0.0,0.0,0.0
145,2023-11-28 16:58:16.667149,1701187096.667149,23.49126960036375,116.38523864746097,27.501974166279517,59.643016815185554,26.35605857601787,114.18937683105467,26.35605857601787,63.61669540405274,1701187096.663943,0.0,0.0,0.0
146,2023-11-28 16:58:16.699599,1701187096.699599,32.65859432245692,116.38523864746097,28.64788975654116,59.643016815185554,28.64788975654116,114.18937683105467,29.220847551671984,63.61669540405274,1701187096.697934,0.0,0.0,0.0
147,2023-11-28 16:58:16.721027,1701187096.721027,33.231552117587746,116.38523864746097,28.64788975654116,59.643016815185554,32.65859432245692,114.18937683105467,29.220847551671984,63.61669540405274,1701187096.716845,0.0,0.0,0.0
148,2023-11-28 16:58:16.753455,1701187096.753455,36.66929888837269,116.38523864746097,28.64788975654116,59.643016815185554,40.10704565915762,114.18937683105467,29.220847551671984,63.61669540405274,1701187096.75345,0.0,0.0,0.0
149,2023-11-28 16:58:16.775014,1701187096.775014,42.97183463481174,116.38523864746097,28.64788975654116,59.643016815185554,40.680003454288446,114.18937683105467,29.220847551671984,63.61669540405274,1701187096.771426,0.0,0.0,0.0
150,2023-11-28 16:58:16.807375,1701187096.807375,46.40958140559668,116.38523864746097,28.64788975654116,59.643016815185554,48.70141258611997,114.18937683105467,29.220847551671984,63.61669540405274,1701187096.811048,0.0,0.0,0.0
151,2023-11-28 16:58:16.829026,1701187096.829026,49.84732817638162,116.38523864746097,28.64788975654116,59.643016815185554,49.2743703812508,114.18937683105467,29.220847551671984,63.61669540405274,1701187096.833915,0.0,0.0,0.0
152,2023-11-28 16:58:16.861450,1701187096.86145,54.4309905374282,116.38523864746097,28.64788975654116,59.643016815185554,55.00394833255903,114.18937683105467,29.79380534680281,63.61669540405274,1701187096.864842,0.0,0.0,0.0
153,2023-11-28 16:58:16.883008,1701187096.883008,57.29577951308232,116.38523864746097,28.64788975654116,59.643016815185554,57.86873730821315,114.18937683105467,32.0856365273261,63.61669540405274,1701187096.881489,0.0,0.0,0.0
154,2023-11-28 16:58:16.915260,1701187096.91526,61.30648407899809,116.38523864746097,33.80450991271857,59.643016815185554,61.30648407899809,114.18937683105467,42.39887683968092,63.61669540405274,1701187096.914516,0.0,0.0,0.0
155,2023-11-28 16:58:16.937001,1701187096.937001,65.31718864491384,116.38523864746097,46.40958140559668,59.643016815185554,63.598315259521385,114.18937683105467,51.56620156177409,63.61669540405274,1701187096.935069,0.0,0.0,0.0
156,2023-11-28 16:58:16.969283,1701187096.969283,68.75493541569878,116.38523864746097,69.90085100596043,59.643016815185554,69.90085100596043,114.18937683105467,58.44169510334397,63.61669540405274,1701187096.967999,0.0,0.0,0.0
157,2023-11-28 16:58:16.991048,1701187096.991048,73.33859777674537,116.38523864746097,74.48451336700703,59.643016815185554,71.6197243913529,114.18937683105467,60.73352628386726,63.61669540405274,1701187096.989548,0.0,0.0,0.0
158,2023-11-28 16:58:17.023307,1701187097.023307,76.2033867523995,116.38523864746097,71.6197243913529,59.643016815185554,75.05747116213784,114.18937683105467,60.73352628386726,63.61669540405274,1701187097.021068,0.0,0.0,0.0
159,2023-11-28 16:58:17.045039,1701187097.045039,81.36000690857689,116.38523864746097,68.18197762056796,59.643016815185554,75.05747116213784,114.18937683105467,60.73352628386726,63.61669540405274,1701187097.042267,0.0,0.0,0.0
160,2023-11-28 16:58:17.077413,1701187097.077413,84.22479588423101,116.38523864746097,63.598315259521385,59.643016815185554,75.05747116213784,114.18937683105467,60.73352628386726,63.61669540405274,1701187097.075226,0.0,0.0,0.0
161,2023-11-28 16:58:17.099058,1701187097.099058,89.38141604040842,116.38523864746097,60.160568488736445,59.643016815185554,75.05747116213784,114.18937683105467,60.73352628386726,63.61669540405274,1701187097.096897,0.0,0.0,0.0
162,2023-11-28 16:58:17.131440,1701187097.13144,93.965078401455,116.38523864746097,57.29577951308232,59.643016815185554,76.77634454753031,114.18937683105467,60.73352628386726,63.61669540405274,1701187097.125789,0.0,0.0,0.0
163,2023-11-28 16:58:17.153030,1701187097.15303,94.53803619658582,116.38523864746097,58.44169510334397,59.643016815185554,81.36000690857689,114.18937683105467,60.73352628386726,63.61669540405274,1701187097.15493,0.0,0.0,0.0
164,2023-11-28 16:58:17.185344,1701187097.185344,101.41352973815572,116.38523864746097,57.29577951308232,59.643016815185554,95.11099399171664,114.18937683105467,60.73352628386726,63.61669540405274,1701187097.184779,0.0,0.0,0.0
165,2023-11-28 16:58:17.207025,1701187097.207025,101.41352973815572,116.38523864746097,59.01465289847479,59.643016815185554,108.8619810748564,114.18937683105467,63.02535746439056,63.61669540405274,1701187097.204828,0.0,0.0,0.0
166,2023-11-28 16:58:17.239434,1701187097.239434,105.99719209920232,116.38523864746097,57.86873730821315,59.643016815185554,108.8619810748564,114.18937683105467,68.18197762056796,63.61669540405274,1701187097.237545,0.0,0.0,0.0
167,2023-11-28 16:58:17.261046,1701187097.261046,110.58085446024889,116.38523864746097,57.86873730821315,59.643016815185554,105.42423430407148,114.18937683105467,64.74423084978302,63.61669540405274,1701187097.259793,0.0,0.0,0.0
168,2023-11-28 16:58:17.293341,1701187097.293341,110.58085446024889,116.38523864746097,57.86873730821315,59.643016815185554,105.99719209920232,114.18937683105467,64.74423084978302,63.61669540405274,1701187097.292853,0.0,0.0,0.0
169,2023-11-28 16:58:17.315049,1701187097.315049,111.72677005051052,116.38523864746097,57.86873730821315,59.643016815185554,105.99719209920232,114.18937683105467,64.1712730546522,63.61669540405274,1701187097.315251,0.0,0.0,0.0
170,2023-11-28 16:58:17.347425,1701187097.347425,112.29972784564136,116.38523864746097,58.44169510334397,59.643016815185554,105.99719209920232,114.18937683105467,63.598315259521385,63.61669540405274,1701187097.347604,0.0,0.0,0.0
171,2023-11-28 16:58:17.369031,1701187097.369031,112.29972784564136,116.38523864746097,58.44169510334397,59.643016815185554,105.99719209920232,114.18937683105467,63.598315259521385,63.61669540405274,1701187097.367889,0.0,0.0,0.0
172,2023-11-28 16:58:17.401456,1701187097.401456,112.29972784564136,116.38523864746097,58.44169510334397,59.643016815185554,105.99719209920232,114.18937683105467,63.598315259521385,63.61669540405274,1701187097.401296,0.0,0.0,0.0
173,2023-11-28 16:58:17.423034,1701187097.423034,112.29972784564136,116.38523864746097,58.44169510334397,59.643016815185554,105.99719209920232,114.18937683105467,63.598315259521385,63.61669540405274,1701187097.42133,0.0,0.0,0.0
174,2023-11-28 16:58:17.455355,1701187097.455355,112.29972784564136,116.38523864746097,58.44169510334397,59.643016815185554,105.99719209920232,114.18937683105467,63.598315259521385,63.61669540405274,1701187097.460938,0.0,0.0,0.0
175,2023-11-28 16:58:17.477219,1701187097.477219,112.29972784564136,116.38523864746097,58.44169510334397,59.643016815185554,105.99719209920232,114.18937683105467,63.598315259521385,63.61669540405274,1701187097.47238,0.0,0.0,0.0
176,2023-11-28 16:58:17.509596,1701187097.509596,112.29972784564136,116.38523864746097,58.44169510334397,59.643016815185554,105.99719209920232,114.18937683105467,63.598315259521385,63.61669540405274,1701187097.506569,0.0,0.0,0.0
177,2023-11-28 16:58:17.531082,1701187097.531082,112.29972784564136,116.38523864746097,58.44169510334397,59.643016815185554,105.99719209920232,114.18937683105467,63.598315259521385,63.61669540405274,1701187097.52929,0.0,0.0,0.0
178,2023-11-28 16:58:17.563444,1701187097.563444,112.29972784564136,116.38523864746097,58.44169510334397,59.643016815185554,105.99719209920232,114.18937683105467,63.598315259521385,63.61669540405274,1701187097.560537,0.0,0.0,0.0
179,2023-11-28 16:58:17.585152,1701187097.585152,112.29972784564136,116.38523864746097,58.44169510334397,59.643016815185554,105.99719209920232,114.18937683105467,63.598315259521385,63.61669540405274,1701187097.586758,0.0,0.0,0.0
180,2023-11-28 16:58:17.617609,1701187097.617609,112.29972784564136,116.38523864746097,58.44169510334397,59.643016815185554,105.99719209920232,114.18937683105467,63.598315259521385,63.61669540405274,1701187097.615206,0.0,0.0,0.0
181,2023-11-28 16:58:17.639064,1701187097.639064,112.29972784564136,116.38523864746097,58.44169510334397,59.643016815185554,105.99719209920232,114.18937683105467,63.598315259521385,63.61669540405274,1701187097.63521,0.0,0.0,0.0
182,2023-11-28 16:58:17.671514,1701187097.671514,112.87268564077218,116.38523864746097,58.44169510334397,59.643016815185554,105.99719209920232,114.18937683105467,63.598315259521385,63.61669540405274,1701187097.675174,0.0,0.0,0.0
183,2023-11-28 16:58:17.693025,1701187097.693025,112.87268564077218,116.38523864746097,58.44169510334397,59.643016815185554,105.99719209920232,114.18937683105467,63.598315259521385,63.61669540405274,1701187097.696009,0.0,0.0,0.0
184,2023-11-28 16:58:17.725383,1701187097.725383,112.87268564077218,116.38523864746097,58.44169510334397,59.643016815185554,105.99719209920232,114.18937683105467,63.598315259521385,63.61669540405274,1701187097.729757,0.0,0.0,0.0
185,2023-11-28 16:58:17.747052,1701187097.747052,112.87268564077218,116.38523864746097,58.44169510334397,59.643016815185554,105.99719209920232,114.18937683105467,63.598315259521385,63.61669540405274,1701187097.751603,0.0,0.0,0.0
186,2023-11-28 16:58:17.779513,1701187097.779513,112.87268564077218,116.38523864746097,58.44169510334397,59.643016815185554,105.99719209920232,114.18937683105467,63.598315259521385,63.61669540405274,1701187097.783481,0.0,0.0,0.0
187,2023-11-28 16:58:17.801089,1701187097.801089,112.87268564077218,116.38523864746097,58.44169510334397,59.643016815185554,105.99719209920232,114.18937683105467,63.598315259521385,63.61669540405274,1701187097.805112,0.0,0.0,0.0
188,2023-11-28 16:58:17.833446,1701187097.833446,112.87268564077218,116.38523864746097,58.44169510334397,59.643016815185554,105.99719209920232,114.18937683105467,63.598315259521385,63.61669540405274,1701187097.833089,0.0,0.0,0.0
189,2023-11-28 16:58:17.855076,1701187097.855076,112.87268564077218,116.38523864746097,58.44169510334397,59.643016815185554,105.99719209920232,114.18937683105467,63.598315259521385,63.61669540405274,1701187097.852898,0.0,0.0,0.0
190,2023-11-28 16:58:17.887493,1701187097.887493,112.87268564077218,116.38523864746097,59.01465289847479,59.643016815185554,105.99719209920232,114.18937683105467,63.598315259521385,63.61669540405274,1701187097.885279,0.0,0.0,0.0
191,2023-11-28 16:58:17.909048,1701187097.909048,112.87268564077218,116.38523864746097,59.01465289847479,59.643016815185554,105.99719209920232,114.18937683105467,63.598315259521385,63.61669540405274,1701187097.912589,0.0,0.0,0.0
192,2023-11-28 16:58:17.941500,1701187097.9415,112.87268564077218,116.38523864746097,59.01465289847479,59.643016815185554,105.99719209920232,114.18937683105467,63.598315259521385,63.61669540405274,1701187097.937342,0.0,0.0,0.0
193,2023-11-28 16:58:17.963056,1701187097.963056,112.87268564077218,116.38523864746097,59.01465289847479,59.643016815185554,105.99719209920232,114.18937683105467,63.598315259521385,63.61669540405274,1701187097.965206,0.0,0.0,0.0
194,2023-11-28 16:58:17.995387,1701187097.995387,112.87268564077218,116.38523864746097,59.01465289847479,59.643016815185554,105.99719209920232,114.18937683105467,63.598315259521385,63.61669540405274,1701187097.99729,0.0,0.0,0.0
195,2023-11-28 16:58:18.017074,1701187098.017074,112.87268564077218,116.38523864746097,59.01465289847479,59.643016815185554,105.99719209920232,114.18937683105467,63.598315259521385,63.61669540405274,1701187098.020006,0.0,0.0,0.0
196,2023-11-28 16:58:18.049403,1701187098.049403,112.87268564077218,116.38523864746097,59.01465289847479,59.643016815185554,105.99719209920232,114.18937683105467,63.598315259521385,63.61669540405274,1701187098.053282,0.0,0.0,0.0
197,2023-11-28 16:58:18.071124,1701187098.071124,112.87268564077218,116.38523864746097,59.01465289847479,59.643016815185554,105.99719209920232,114.18937683105467,63.598315259521385,63.61669540405274,1701187098.075185,0.0,0.0,0.0
198,2023-11-28 16:58:18.103558,1701187098.103558,112.87268564077218,116.38523864746097,59.01465289847479,59.643016815185554,105.99719209920232,114.18937683105467,63.598315259521385,63.61669540405274,1701187098.108772,0.0,0.0,0.0
199,2023-11-28 16:58:18.125156,1701187098.125156,112.87268564077218,116.38523864746097,59.01465289847479,59.643016815185554,105.99719209920232,114.18937683105467,63.598315259521385,63.61669540405274,1701187098.122522,0.0,0.0,0.0
200,2023-11-28 16:58:18.157503,1701187098.157503,112.87268564077218,116.38523864746097,59.01465289847479,59.643016815185554,105.99719209920232,114.18937683105467,63.598315259521385,63.61669540405274,1701187098.152602,0.0,0.0,0.0
201,2023-11-28 16:58:18.179115,1701187098.179115,112.87268564077218,116.38523864746097,59.01465289847479,59.643016815185554,105.99719209920232,114.18937683105467,63.598315259521385,63.61669540405274,1701187098.182719,0.0,0.0,0.0
202,2023-11-28 16:58:18.211484,1701187098.211484,112.87268564077218,116.38523864746097,59.01465289847479,59.643016815185554,105.99719209920232,114.18937683105467,63.598315259521385,63.61669540405274,1701187098.211374,0.0,0.0,0.0
203,2023-11-28 16:58:18.233090,1701187098.23309,112.87268564077218,116.38523864746097,59.01465289847479,59.643016815185554,105.99719209920232,114.18937683105467,63.598315259521385,63.61669540405274,1701187098.240001,0.0,0.0,0.0
204,2023-11-28 16:58:18.265382,1701187098.265382,112.87268564077218,116.38523864746097,59.01465289847479,59.643016815185554,105.99719209920232,114.18937683105467,63.598315259521385,63.61669540405274,1701187098.267315,0.0,0.0,0.0
205,2023-11-28 16:58:18.287143,1701187098.287143,112.87268564077218,116.38523864746097,59.01465289847479,59.643016815185554,105.99719209920232,114.18937683105467,63.598315259521385,63.61669540405274,1701187098.285964,0.0,0.0,0.0
206,2023-11-28 16:58:18.319620,1701187098.31962,112.87268564077218,116.38523864746097,59.01465289847479,59.643016815185554,105.99719209920232,114.18937683105467,63.598315259521385,63.61669540405274,1701187098.316363,0.0,0.0,0.0
207,2023-11-28 16:58:18.341079,1701187098.341079,112.87268564077218,116.38523864746097,59.01465289847479,59.643016815185554,105.99719209920232,114.18937683105467,63.598315259521385,63.61669540405274,1701187098.343254,0.0,0.0,0.0
208,2023-11-28 16:58:18.373525,1701187098.373525,112.87268564077218,116.38523864746097,59.01465289847479,59.643016815185554,105.99719209920232,114.18937683105467,63.598315259521385,63.61669540405274,1701187098.373467,0.0,0.0,0.0
209,2023-11-28 16:58:18.395069,1701187098.395069,112.87268564077218,116.38523864746097,59.01465289847479,59.643016815185554,105.99719209920232,114.18937683105467,63.598315259521385,63.61669540405274,1701187098.396558,0.0,0.0,0.0
210,2023-11-28 16:58:18.427366,1701187098.427366,112.87268564077218,116.38523864746097,59.01465289847479,59.643016815185554,105.99719209920232,114.18937683105467,63.598315259521385,63.61669540405274,1701187098.430286,0.0,0.0,0.0
211,2023-11-28 16:58:18.449081,1701187098.449081,112.87268564077218,116.38523864746097,59.01465289847479,59.643016815185554,105.99719209920232,114.18937683105467,63.598315259521385,63.61669540405274,1701187098.453414,0.0,0.0,0.0
212,2023-11-28 16:58:18.481344,1701187098.481344,112.87268564077218,116.38523864746097,59.01465289847479,59.643016815185554,105.99719209920232,114.18937683105467,63.598315259521385,63.61669540405274,1701187098.476491,0.0,0.0,0.0
213,2023-11-28 16:58:18.503145,1701187098.503145,112.87268564077218,116.38523864746097,59.01465289847479,59.643016815185554,105.99719209920232,114.18937683105467,63.598315259521385,63.61669540405274,1701187098.498658,0.0,0.0,0.0
214,2023-11-28 16:58:18.535497,1701187098.535497,112.87268564077218,116.38523864746097,59.01465289847479,59.643016815185554,105.99719209920232,114.18937683105467,63.598315259521385,63.61669540405274,1701187098.532541,0.0,0.0,0.0
215,2023-11-28 16:58:18.557085,1701187098.557085,112.87268564077218,116.38523864746097,59.01465289847479,59.643016815185554,105.99719209920232,114.18937683105467,63.598315259521385,63.61669540405274,1701187098.555158,0.0,0.0,0.0
216,2023-11-28 16:58:18.589445,1701187098.589445,112.87268564077218,116.38523864746097,59.01465289847479,59.643016815185554,105.99719209920232,114.18937683105467,63.598315259521385,63.61669540405274,1701187098.588058,0.0,0.0,0.0
217,2023-11-28 16:58:18.611081,1701187098.611081,112.87268564077218,116.38523864746097,59.01465289847479,59.643016815185554,105.99719209920232,114.18937683105467,63.598315259521385,63.61669540405274,1701187098.606278,0.0,0.0,0.0
218,2023-11-28 16:58:18.643512,1701187098.643512,112.87268564077218,116.38523864746097,59.01465289847479,59.643016815185554,105.99719209920232,114.18937683105467,63.598315259521385,63.61669540405274,1701187098.642252,0.0,0.0,0.0
219,2023-11-28 16:58:18.665096,1701187098.665096,112.87268564077218,116.38523864746097,59.01465289847479,59.643016815185554,105.99719209920232,114.18937683105467,63.598315259521385,63.61669540405274,1701187098.667362,0.0,0.0,0.0
220,2023-11-28 16:58:18.697423,1701187098.697423,112.87268564077218,116.38523864746097,59.01465289847479,59.643016815185554,105.99719209920232,114.18937683105467,63.598315259521385,63.61669540405274,1701187098.701889,0.0,0.0,0.0
221,2023-11-28 16:58:18.719157,1701187098.719157,112.87268564077218,116.38523864746097,59.01465289847479,59.643016815185554,105.99719209920232,114.18937683105467,63.598315259521385,63.61669540405274,1701187098.721995,0.0,0.0,0.0
222,2023-11-28 16:58:18.751478,1701187098.751478,112.87268564077218,116.38523864746097,59.01465289847479,59.643016815185554,105.99719209920232,114.18937683105467,63.598315259521385,63.61669540405274,1701187098.751914,0.0,0.0,0.0
223,2023-11-28 16:58:18.773131,1701187098.773131,112.87268564077218,116.38523864746097,59.01465289847479,59.643016815185554,105.99719209920232,114.18937683105467,63.598315259521385,63.61669540405274,1701187098.771964,0.0,0.0,0.0
224,2023-11-28 16:58:18.805519,1701187098.805519,112.87268564077218,116.38523864746097,59.01465289847479,59.643016815185554,105.99719209920232,114.18937683105467,63.598315259521385,63.61669540405274,1701187098.805958,0.0,0.0,0.0
225,2023-11-28 16:58:18.827076,1701187098.827076,112.87268564077218,116.38523864746097,59.01465289847479,59.643016815185554,105.99719209920232,114.18937683105467,63.598315259521385,63.61669540405274,1701187098.824095,0.0,0.0,0.0
226,2023-11-28 16:58:18.859434,1701187098.859434,112.87268564077218,116.38523864746097,59.01465289847479,59.643016815185554,105.99719209920232,114.18937683105467,63.598315259521385,63.61669540405274,1701187098.86191,0.0,0.0,0.0
227,2023-11-28 16:58:18.881145,1701187098.881145,112.87268564077218,116.38523864746097,59.01465289847479,59.643016815185554,105.99719209920232,114.18937683105467,63.598315259521385,63.61669540405274,1701187098.88192,0.0,0.0,0.0
228,2023-11-28 16:58:18.913593,1701187098.913593,112.87268564077218,116.38523864746097,59.58761069360562,59.643016815185554,105.99719209920232,114.18937683105467,63.598315259521385,63.61669540405274,1701187098.911961,0.0,0.0,0.0
229,2023-11-28 16:58:18.935106,1701187098.935106,112.87268564077218,116.38523864746097,59.58761069360562,59.643016815185554,105.99719209920232,114.18937683105467,63.598315259521385,63.61669540405274,1701187098.931965,0.0,0.0,0.0
230,2023-11-28 16:58:18.967442,1701187098.967442,112.87268564077218,116.38523864746097,59.58761069360562,59.643016815185554,105.99719209920232,114.18937683105467,63.598315259521385,63.61669540405274,1701187098.971973,0.0,0.0,0.0
231,2023-11-28 16:58:18.989139,1701187098.989139,112.87268564077218,116.38523864746097,59.58761069360562,59.643016815185554,105.99719209920232,114.18937683105467,63.598315259521385,63.61669540405274,1701187098.992918,0.0,0.0,0.0
232,2023-11-28 16:58:19.021531,1701187099.021531,112.87268564077218,116.38523864746097,59.58761069360562,59.643016815185554,105.99719209920232,114.18937683105467,63.598315259521385,63.61669540405274,1701187099.025608,0.0,0.0,0.0
233,2023-11-28 16:58:19.043112,1701187099.043112,112.87268564077218,116.38523864746097,59.58761069360562,59.643016815185554,105.99719209920232,114.18937683105467,63.598315259521385,63.61669540405274,1701187099.048326,0.0,0.0,0.0
234,2023-11-28 16:58:19.075409,1701187099.075409,112.87268564077218,116.38523864746097,59.58761069360562,59.643016815185554,105.99719209920232,114.18937683105467,63.598315259521385,63.61669540405274,1701187099.080946,0.0,0.0,0.0
235,2023-11-28 16:58:19.097155,1701187099.097155,112.87268564077218,116.38523864746097,59.58761069360562,59.643016815185554,105.99719209920232,114.18937683105467,63.598315259521385,63.61669540405274,1701187099.091857,0.0,0.0,0.0
236,2023-11-28 16:58:19.129538,1701187099.129538,112.87268564077218,116.38523864746097,59.58761069360562,59.643016815185554,105.99719209920232,114.18937683105467,63.598315259521385,63.61669540405274,1701187099.124471,0.0,0.0,0.0
237,2023-11-28 16:58:19.151195,1701187099.151195,112.87268564077218,116.38523864746097,59.58761069360562,59.643016815185554,105.99719209920232,114.18937683105467,63.598315259521385,63.61669540405274,1701187099.146195,0.0,0.0,0.0
238,2023-11-28 16:58:19.183446,1701187099.183446,112.87268564077218,116.38523864746097,59.58761069360562,59.643016815185554,105.99719209920232,114.18937683105467,63.598315259521385,63.61669540405274,1701187099.180646,0.0,0.0,0.0
239,2023-11-28 16:58:19.205125,1701187099.205125,112.87268564077218,116.38523864746097,59.58761069360562,59.643016815185554,105.99719209920232,114.18937683105467,63.598315259521385,63.61669540405274,1701187099.202186,0.0,0.0,0.0
240,2023-11-28 16:58:19.237521,1701187099.237521,112.87268564077218,116.38523864746097,59.58761069360562,59.643016815185554,105.99719209920232,114.18937683105467,63.598315259521385,63.61669540405274,1701187099.236837,0.0,0.0,0.0
241,2023-11-28 16:58:19.259119,1701187099.259119,112.87268564077218,116.38523864746097,59.58761069360562,59.643016815185554,105.99719209920232,114.18937683105467,63.598315259521385,63.61669540405274,1701187099.256779,0.0,0.0,0.0
242,2023-11-28 16:58:19.291416,1701187099.291416,112.87268564077218,116.38523864746097,59.58761069360562,59.643016815185554,105.99719209920232,114.18937683105467,63.598315259521385,63.61669540405274,1701187099.288788,0.0,0.0,0.0
243,2023-11-28 16:58:19.313184,1701187099.313184,112.87268564077218,116.38523864746097,59.58761069360562,59.643016815185554,105.99719209920232,114.18937683105467,63.598315259521385,63.61669540405274,1701187099.311079,0.0,0.0,0.0
244,2023-11-28 16:58:19.345540,1701187099.34554,112.87268564077218,116.38523864746097,59.58761069360562,59.643016815185554,105.99719209920232,114.18937683105467,63.598315259521385,63.61669540405274,1701187099.344535,0.0,0.0,0.0
245,2023-11-28 16:58:19.367113,1701187099.367113,112.87268564077218,116.38523864746097,59.58761069360562,59.643016815185554,105.99719209920232,114.18937683105467,63.598315259521385,63.61669540405274,1701187099.366862,0.0,0.0,0.0
246,2023-11-28 16:58:19.399388,1701187099.399388,112.87268564077218,116.38523864746097,59.58761069360562,59.643016815185554,105.99719209920232,114.18937683105467,63.598315259521385,63.61669540405274,1701187099.398493,0.0,0.0,0.0
247,2023-11-28 16:58:19.421131,1701187099.421131,112.87268564077218,116.38523864746097,59.58761069360562,59.643016815185554,105.99719209920232,114.18937683105467,63.598315259521385,63.61669540405274,1701187099.419227,0.0,0.0,0.0
248,2023-11-28 16:58:19.453505,1701187099.453505,112.87268564077218,116.38523864746097,59.58761069360562,59.643016815185554,105.99719209920232,114.18937683105467,63.598315259521385,63.61669540405274,1701187099.452248,0.0,0.0,0.0
249,2023-11-28 16:58:19.475173,1701187099.475173,112.87268564077218,116.38523864746097,59.58761069360562,59.643016815185554,105.99719209920232,114.18937683105467,63.598315259521385,63.61669540405274,1701187099.472656,0.0,0.0,0.0
250,2023-11-28 16:58:19.507631,1701187099.507631,112.87268564077218,116.38523864746097,59.58761069360562,59.643016815185554,105.99719209920232,114.18937683105467,63.598315259521385,63.61669540405274,1701187099.505936,0.0,0.0,0.0
251,2023-11-28 16:58:19.529194,1701187099.529194,112.87268564077218,116.38523864746097,59.58761069360562,59.643016815185554,105.99719209920232,114.18937683105467,63.598315259521385,63.61669540405274,1701187099.525876,0.0,0.0,0.0
252,2023-11-28 16:58:19.561469,1701187099.561469,112.87268564077218,116.38523864746097,59.58761069360562,59.643016815185554,105.99719209920232,114.18937683105467,63.598315259521385,63.61669540405274,1701187099.558948,0.0,0.0,0.0
253,2023-11-28 16:58:19.583138,1701187099.583138,112.87268564077218,116.38523864746097,59.58761069360562,59.643016815185554,105.99719209920232,114.18937683105467,63.598315259521385,63.61669540405274,1701187099.580355,0.0,0.0,0.0
254,2023-11-28 16:58:19.615415,1701187099.615415,112.87268564077218,116.38523864746097,59.58761069360562,59.643016815185554,105.99719209920232,114.18937683105467,63.598315259521385,63.61669540405274,1701187099.616028,0.0,0.0,0.0
255,2023-11-28 16:58:19.637172,1701187099.637172,112.87268564077218,116.38523864746097,59.58761069360562,59.643016815185554,105.99719209920232,114.18937683105467,63.598315259521385,63.61669540405274,1701187099.637557,0.0,0.0,0.0
256,2023-11-28 16:58:19.669532,1701187099.669532,112.87268564077218,116.38523864746097,59.58761069360562,59.643016815185554,105.99719209920232,114.18937683105467,63.598315259521385,63.61669540405274,1701187099.663875,0.0,0.0,0.0
257,2023-11-28 16:58:19.691136,1701187099.691136,112.87268564077218,116.38523864746097,59.58761069360562,59.643016815185554,105.99719209920232,114.18937683105467,63.598315259521385,63.61669540405274,1701187099.686702,0.0,0.0,0.0
258,2023-11-28 16:58:19.723418,1701187099.723418,112.87268564077218,116.38523864746097,59.58761069360562,59.643016815185554,105.99719209920232,114.18937683105467,63.598315259521385,63.61669540405274,1701187099.718985,0.0,0.0,0.0
259,2023-11-28 16:58:19.745141,1701187099.745141,112.87268564077218,116.38523864746097,59.58761069360562,59.643016815185554,105.99719209920232,114.18937683105467,63.598315259521385,63.61669540405274,1701187099.741428,0.0,0.0,0.0
260,2023-11-28 16:58:19.777532,1701187099.777532,112.87268564077218,116.38523864746097,59.58761069360562,59.643016815185554,105.99719209920232,114.18937683105467,63.598315259521385,63.61669540405274,1701187099.773934,0.0,0.0,0.0
261,2023-11-28 16:58:19.799095,1701187099.799095,112.87268564077218,116.38523864746097,59.58761069360562,59.643016815185554,105.99719209920232,114.18937683105467,63.598315259521385,63.61669540405274,1701187099.796105,0.0,0.0,0.0
262,2023-11-28 16:58:19.831379,1701187099.831379,112.87268564077218,116.38523864746097,59.58761069360562,59.643016815185554,105.99719209920232,114.18937683105467,63.598315259521385,63.61669540405274,1701187099.827049,0.0,0.0,0.0
263,2023-11-28 16:58:19.852508,1701187099.852508,112.87268564077218,116.38523864746097,59.58761069360562,59.643016815185554,105.99719209920232,114.18937683105467,63.598315259521385,63.61669540405274,1701187099.849203,0.0,0.0,0.0
264,2023-11-28 16:58:19.884854,1701187099.884854,112.87268564077218,116.38523864746097,59.58761069360562,59.643016815185554,105.99719209920232,114.18937683105467,63.598315259521385,63.61669540405274,1701187099.882623,0.0,0.0,0.0
265,2023-11-28 16:58:19.906239,1701187099.906239,112.87268564077218,116.38523864746097,59.58761069360562,59.643016815185554,105.99719209920232,114.18937683105467,63.598315259521385,63.61669540405274,1701187099.902697,0.0,0.0,0.0
266,2023-11-28 16:58:19.938497,1701187099.938497,112.87268564077218,116.38523864746097,59.58761069360562,59.643016815185554,105.99719209920232,114.18937683105467,63.598315259521385,63.61669540405274,1701187099.942724,0.0,0.0,0.0
267,2023-11-28 16:58:19.960203,1701187099.960203,112.87268564077218,116.38523864746097,59.58761069360562,59.643016815185554,105.99719209920232,114.18937683105467,63.598315259521385,63.61669540405274,1701187099.962742,0.0,0.0,0.0
268,2023-11-28 16:58:19.992611,1701187099.992611,112.87268564077218,116.38523864746097,59.58761069360562,59.643016815185554,105.99719209920232,114.18937683105467,63.598315259521385,63.61669540405274,1701187099.992713,0.0,0.0,0.0
269,2023-11-28 16:58:20.014214,1701187100.014214,112.87268564077218,116.38523864746097,59.58761069360562,59.643016815185554,105.99719209920232,114.18937683105467,63.598315259521385,63.61669540405274,1701187100.01276,0.0,0.0,0.0
270,2023-11-28 16:58:20.046556,1701187100.046556,112.87268564077218,116.38523864746097,59.58761069360562,59.643016815185554,105.99719209920232,114.18937683105467,63.598315259521385,63.61669540405274,1701187100.042741,0.0,0.0,0.0
271,2023-11-28 16:58:20.068226,1701187100.068226,112.87268564077218,116.38523864746097,59.58761069360562,59.643016815185554,105.99719209920232,114.18937683105467,63.598315259521385,63.61669540405274,1701187100.073554,0.0,0.0,0.0
272,2023-11-28 16:58:20.100582,1701187100.100582,112.87268564077218,116.38523864746097,59.58761069360562,59.643016815185554,105.99719209920232,114.18937683105467,63.598315259521385,63.61669540405274,1701187100.102708,0.0,0.0,0.0
273,2023-11-28 16:58:20.122160,1701187100.12216,112.87268564077218,116.38523864746097,59.58761069360562,59.643016815185554,105.99719209920232,114.18937683105467,63.598315259521385,63.61669540405274,1701187100.122708,0.0,0.0,0.0
274,2023-11-28 16:58:20.154466,1701187100.154466,112.87268564077218,116.38523864746097,59.58761069360562,59.643016815185554,105.99719209920232,114.18937683105467,63.598315259521385,63.61669540405274,1701187100.152739,0.0,0.0,0.0
275,2023-11-28 16:58:20.176150,1701187100.17615,112.87268564077218,116.38523864746097,59.58761069360562,59.643016815185554,105.99719209920232,114.18937683105467,63.598315259521385,63.61669540405274,1701187100.172712,0.0,0.0,0.0
276,2023-11-28 16:58:20.208541,1701187100.208541,112.87268564077218,116.38523864746097,59.58761069360562,59.643016815185554,105.99719209920232,114.18937683105467,63.598315259521385,63.61669540405274,1701187100.212737,0.0,0.0,0.0
277,2023-11-28 16:58:20.230254,1701187100.230254,112.87268564077218,116.38523864746097,59.58761069360562,59.643016815185554,105.99719209920232,114.18937683105467,63.598315259521385,63.61669540405274,1701187100.23271,0.0,0.0,0.0
278,2023-11-28 16:58:20.262617,1701187100.262617,112.87268564077218,116.38523864746097,59.58761069360562,59.643016815185554,105.99719209920232,114.18937683105467,63.598315259521385,63.61669540405274,1701187100.262719,0.0,0.0,0.0
279,2023-11-28 16:58:20.284168,1701187100.284168,112.87268564077218,116.38523864746097,59.58761069360562,59.643016815185554,105.99719209920232,114.18937683105467,63.598315259521385,63.61669540405274,1701187100.282754,0.0,0.0,0.0
280,2023-11-28 16:58:20.316500,1701187100.3165,112.87268564077218,116.38523864746097,59.58761069360562,59.643016815185554,105.99719209920232,114.18937683105467,63.598315259521385,63.61669540405274,1701187100.312763,0.0,0.0,0.0
281,2023-11-28 16:58:20.338159,1701187100.338159,112.87268564077218,116.38523864746097,59.58761069360562,59.643016815185554,105.99719209920232,114.18937683105467,63.598315259521385,63.61669540405274,1701187100.342757,0.0,0.0,0.0
282,2023-11-28 16:58:20.370415,1701187100.370415,112.87268564077218,116.38523864746097,59.58761069360562,59.643016815185554,105.99719209920232,114.18937683105467,63.598315259521385,63.61669540405274,1701187100.373476,0.0,0.0,0.0
283,2023-11-28 16:58:20.392141,1701187100.392141,112.87268564077218,116.38523864746097,59.58761069360562,59.643016815185554,105.99719209920232,114.18937683105467,63.598315259521385,63.61669540405274,1701187100.393846,0.0,0.0,0.0
284,2023-11-28 16:58:20.424529,1701187100.424529,112.87268564077218,116.38523864746097,59.58761069360562,59.643016815185554,105.99719209920232,114.18937683105467,63.598315259521385,63.61669540405274,1701187100.424054,0.0,0.0,0.0
285,2023-11-28 16:58:20.446169,1701187100.446169,112.87268564077218,116.38523864746097,59.58761069360562,59.643016815185554,105.99719209920232,114.18937683105467,63.598315259521385,63.61669540405274,1701187100.44553,0.0,0.0,0.0
286,2023-11-28 16:58:20.478433,1701187100.478433,112.87268564077218,116.38523864746097,59.58761069360562,59.643016815185554,105.99719209920232,114.18937683105467,63.598315259521385,63.61669540405274,1701187100.477952,0.0,0.0,0.0
287,2023-11-28 16:58:20.500185,1701187100.500185,112.87268564077218,116.38523864746097,59.58761069360562,59.643016815185554,105.99719209920232,114.18937683105467,63.598315259521385,63.61669540405274,1701187100.497397,0.0,0.0,0.0
288,2023-11-28 16:58:20.532605,1701187100.532605,112.87268564077218,116.38523864746097,59.58761069360562,59.643016815185554,105.99719209920232,114.18937683105467,63.598315259521385,63.61669540405274,1701187100.534531,0.0,0.0,0.0
289,2023-11-28 16:58:20.554181,1701187100.554181,112.87268564077218,116.38523864746097,59.58761069360562,59.643016815185554,105.99719209920232,114.18937683105467,63.598315259521385,63.61669540405274,1701187100.555202,0.0,0.0,0.0
290,2023-11-28 16:58:20.586576,1701187100.586576,112.87268564077218,116.38523864746097,59.58761069360562,59.643016815185554,105.99719209920232,114.18937683105467,63.598315259521385,63.61669540405274,1701187100.582925,0.0,0.0,0.0
291,2023-11-28 16:58:20.608263,1701187100.608263,112.87268564077218,116.38523864746097,59.58761069360562,59.643016815185554,105.99719209920232,114.18937683105467,63.598315259521385,63.61669540405274,1701187100.613229,0.0,0.0,0.0
292,2023-11-28 16:58:20.640721,1701187100.640721,112.87268564077218,116.38523864746097,59.58761069360562,59.643016815185554,105.99719209920232,114.18937683105467,63.598315259521385,63.61669540405274,1701187100.643658,0.0,0.0,0.0
293,2023-11-28 16:58:20.662214,1701187100.662214,112.87268564077218,116.38523864746097,59.58761069360562,59.643016815185554,105.99719209920232,114.18937683105467,63.598315259521385,63.61669540405274,1701187100.665445,0.0,0.0,0.0
294,2023-11-28 16:58:20.694621,1701187100.694621,112.87268564077218,116.38523864746097,59.58761069360562,59.643016815185554,105.99719209920232,114.18937683105467,63.598315259521385,63.61669540405274,1701187100.692704,0.0,0.0,0.0
295,2023-11-28 16:58:20.716221,1701187100.716221,112.87268564077218,116.38523864746097,59.58761069360562,59.643016815185554,105.99719209920232,114.18937683105467,63.598315259521385,63.61669540405274,1701187100.712695,0.0,0.0,0.0
296,2023-11-28 16:58:20.748568,1701187100.748568,112.87268564077218,116.38523864746097,59.58761069360562,59.643016815185554,105.99719209920232,114.18937683105467,63.598315259521385,63.61669540405274,1701187100.745979,0.0,0.0,0.0
